location_id,city,latitude,longitude,temperature,humidity,wind_speed,wind_deg,timestamp
16173235,Mumbai,19.054999,72.8692035,28.02,42,2.57,330,1766499058
16173236,New Delhi,28.6138954,77.2090057,16.07,77,2.06,260,1766499002
16174445,Pune,18.5213738,73.8545071,22.45,34,1.69,106,1766498794
30609910,Shrirampur,19.6199708,74.6546944,20.4,35,1.75,66,1766499058
30612110,Vaduj,17.5950822,74.4504661,21.15,29,2.28,67,1766499058
82799646,Pushkar,26.4876472,74.5578484,18.37,33,2.8,347,1766499058
82799649,Orchha,25.3528706,78.6402465,18.87,46,1.89,4,1766499058
102751630,Phillaur,31.018294,75.7839116,16.24,49,3.67,297,1766499058
103898968,Goraya,31.1208324,75.7787046,16.31,49,3.61,295,1766498986
103907978,Phagwara,31.2206734,75.7696463,16.32,49,3.54,295,1766498804
125904109,Mohali,30.7041168,76.7176885,15.94,57,3.61,326,1766499058
125905496,Morinda,30.7908462,76.4984505,16.26,56,3.59,314,1766499058
125906063,Kurali,30.8314536,76.5784763,15.99,57,3.38,325,1766499058
125907877,Rupnagar,30.9688367,76.526088,16.06,57,3.11,331,1766499058
126094102,Moga,30.8223408,75.1730967,16.05,43,3.1,309,1766499058
165089167,Pahalgam,34.0322048,75.3226479,0.09,45,4.68,52,1766499058
176044062,Ambala,30.3843674,76.770421,16.81,54,3.97,303,1766499058
176047379,Doraha,30.7988727,76.0372906,16.32,51,3.78,302,1766499058
243327628,Sriperumbudur,12.9666144,79.9458077,25.22,80,3.48,28,1766499058
243327788,Poonamallee,13.0492031,80.1010677,25.37,77,3.6,50,1766499058
243416825,Sahnewal,30.8402061,75.983601,16.29,50,3.75,300,1766499058
243713144,Vellore,12.9071753,79.1309695,20.39,72,2.0,69,1766499058
243859333,Jagraon,30.8041704,75.4753645,16.16,46,3.42,309,1766499058
243869887,Gill,30.846374,75.8628312,16.22,49,3.7,302,1766499058
245133391,Dehlon,30.7431327,75.8505198,16.26,49,3.68,309,1766499058
245580128,Nagercoil,8.1839904,77.4315437,23.49,74,1.8,5,1766499058
245581303,Nanguneri,8.4892568,77.6596709,22.79,79,2.06,34,1766499058
245581432,Thiruvananthapuram,8.4882267,76.947551,27.94,74,1.54,270,1766498667
245581609,Nazareth,8.5599258,77.9719457,24.68,73,4.46,58,1766499058
245581822,Vikramasingapuram,8.7141792,77.3892867,23.59,73,1.64,93,1766499058
245581857,Tirunelveli,8.7284271,77.7112925,24.15,74,2.83,81,1766499045
245581905,Alwarkuruchi,8.782604,77.3985651,24.07,71,1.82,97,1766499058
245582090,Kollam,8.8870533,76.5906696,25.48,65,0.51,302,1766499058
245582136,Ayoor,8.8978612,76.8601206,21.28,80,0.41,38,1766499058
245582143,Kulathupuzha,8.9065347,77.0564917,21.78,78,0.21,45,1766499058
245582256,Tenkasi,8.9557896,77.3072559,23.69,68,1.58,76,1766498947
245582478,Kottarakkara,9.0054869,76.7831987,21.6,79,0.55,69,1766499058
245582675,Vilattikulam,9.130928,78.167316,24.86,69,4.59,72,1766499058
245582795,Ettaiyapuram,9.1485222,77.9971639,24.7,67,3.13,70,1766499058
245582958,Sankarankovil,9.170073,77.535369,25.02,59,1.81,17,1766499058
245583048,Puliyangudi,9.1756002,77.3966381,23.45,68,1.85,8,1766499058
245583686,Haripad,9.2844934,76.4562679,24.4,76,0.73,310,1766499058
245583753,Mandapam,9.282701,79.1526713,25.47,78,8.4,49,1766499058
245583914,Sattur,9.3516337,77.9211286,25.06,62,3.76,48,1766499058
245584040,Rajapalayam,9.4456102,77.5542849,23.79,65,1.84,324,1766499058
245584065,Devipattinam,9.4749165,78.8967566,25.22,76,6.58,61,1766499058
245584105,Alappuzha,9.4923271,76.3291487,25.84,72,3.12,295,1766499058
245584138,Aruppukkottai,9.5073229,78.0958971,24.92,63,3.5,52,1766499058
245584469,Virudhunagar,9.58224,77.9537,24.56,64,3.58,50,1766499058
245584800,Thondi,9.7422651,79.0175877,25.22,74,6.57,54,1766499058
245584837,Painavu,9.8540061,76.9446486,17.49,72,1.7,85,1766499058
245585550,Usilampatti,9.9648653,77.7898611,22.92,67,1.07,80,1766499058
245585625,Muvattupuzha,9.9831493,76.5781613,27.85,84,0.74,92,1766499058
245585698,Theni,10.0108143,77.4810104,21.73,64,1.88,342,1766499058
245585726,Melur,10.0309005,78.337589,23.22,71,3.37,48,1766498492
245586161,Angamaly,10.1910284,76.3874109,27.89,54,2.06,260,1766499058
245586200,Natham,10.2256894,78.2299964,22.1,74,2.04,52,1766499058
245586306,Chinnalapatti,10.2767592,77.9218398,21.44,74,1.14,16,1766498820
245586375,Dindigul,10.365646,77.9693256,21.85,72,1.07,78,1766498761
245586401,Thuvarankurichchi,10.3758009,78.3872851,22.24,74,2.15,62,1766499058
245586442,Muthupet,10.3956923,79.4944659,22.8,82,4.34,47,1766499058
245586675,Vedasandur,10.5324146,77.9463173,22.49,68,1.6,116,1766499058
245586959,Udumalapettai,10.5839,77.25,20.74,69,1.82,152,1766499058
245587128,Orathanadu,10.6296502,79.2515516,21.75,81,3.27,60,1766499058
245587450,Kilvelur,10.7690209,79.7421122,22.44,85,4.0,38,1766499058
245587589,Thanjavur,10.7860267,79.1381497,23.95,81,3.44,70,1766499058
245587903,Lalgudi,10.877163,78.8138944,25.16,73,2.06,90,1766498675
245588416,Kodavasal,10.8552828,79.4809565,21.63,85,3.49,50,1766499058
245588792,Musiri,10.951573,78.4419808,23.17,66,3.19,76,1766499058
245588836,Karur,10.9596041,78.0807797,23.59,63,2.63,125,1766499058
245588875,Kumbakonam,10.9604108,79.3820861,21.46,84,3.41,53,1766498834
245589056,Palladam,10.9962313,77.2835582,28.18,59,2.46,99,1766499058
245589070,Thottiyam,10.9891847,78.3354402,23.07,67,2.76,86,1766499058
245589078,Coimbatore,11.0018115,76.9628425,27.88,36,1.54,10,1766499058
245589089,Kangeyam,11.0060598,77.5607403,22.6,54,1.81,124,1766499058
245589530,Thathaiyangarpet,11.121255,78.4496465,22.74,67,2.94,55,1766499058
245589607,Thuraiyur,11.1518947,78.5957098,22.8,66,3.01,41,1766498780
245589617,Ariyalur,11.1357708,79.0723203,23.83,73,3.51,76,1766499058
245589987,Jayankondam,11.2119861,79.3648642,21.41,84,3.33,62,1766499058
245590129,Perambalur,11.2356695,78.8688353,22.54,70,2.22,50,1766499058
245590422,Sendurai,11.2538986,79.1771548,23.79,81,3.58,73,1766499058
245590728,Sendamangalam,11.2812016,78.2350768,25.16,68,1.76,67,1766499058
245591866,Tiruchengodu,11.3786608,77.8949223,24.75,53,1.23,139,1766499058
245592033,Tittakudi,11.402175,79.1210712,22.37,76,3.54,74,1766499058
245592145,Pennadam,11.4028109,79.2416716,22.02,81,3.58,75,1766499058
245592179,Udhagamandalam,11.4126769,76.7030504,9.08,88,0.34,163,1766498797
245592587,Bhavani,11.4405993,77.6824386,25.21,56,0.55,108,1766499058
245593029,Sankagiri,11.4760857,77.8704045,24.3,55,1.19,90,1766499058
245593044,Veeraganur,11.4761379,78.7380844,22.05,66,2.15,19,1766499058
245593200,Parangipettai,11.4905673,79.7568983,24.77,76,6.49,46,1766499058
245593619,Gangavalli,11.499684,78.6447079,21.36,69,1.69,41,1766499058
245594398,Attayampatti,11.531861,78.0508039,22.72,60,2.12,70,1766499058
245595343,Anthiyur,11.575293,77.5886003,24.43,59,0.45,230,1766499058
245596484,Kalpetta,11.610278,76.08281,17.71,78,1.04,10,1766499058
245598247,Kallakurichi,11.7406259,78.9637131,22.57,62,2.71,11,1766499058
245598263,Thiyagadurgam,11.7417773,79.0733496,22.84,63,2.71,31,1766499058
245598417,Mettur,11.7902463,77.7980929,24.94,59,1.4,20,1766499058
245598638,Yercaud,11.7852074,78.2075392,15.0,73,2.09,68,1766499058
245598696,Gundlupet,11.808496,76.6916141,18.81,66,1.82,119,1766499058
245599518,Sankarapuram,11.8873761,78.9166118,22.15,63,2.16,11,1766499058
245599932,Chamarajanagara,11.9238058,76.9393558,19.49,66,2.12,111,1766499058
245600130,Puducherry,11.9340568,79.8306447,23.82,69,6.53,33,1766499058
245601884,Taliparamba,12.0373542,75.3602841,21.68,72,1.17,357,1766499058
245601929,Sreekandapuram,12.0472242,75.5104585,21.15,74,0.96,7,1766499058
245602267,Hanur,12.0870315,77.3017969,19.35,64,1.59,148,1766499058
245602307,Yelanduru,12.0463301,77.0306546,19.85,61,1.7,108,1766499058
245602596,Nileshwaram,12.250817,75.1281569,23.79,66,1.08,355,1766499058
245602738,Nanjanagudu,12.1186851,76.6817502,24.58,51,2.28,82,1766499058
245603249,Kollegal,12.1560966,77.1071726,19.85,60,1.52,122,1766499058
245603915,Tiruvannamalai,12.2343228,79.0761989,21.5,63,2.54,38,1766499058
245605597,Chengam,12.3075866,78.7931408,20.62,66,1.71,47,1766499059
245606031,Periyapatna,12.3372494,76.0988013,18.6,51,1.26,75,1766499059
245606122,Cheyur,12.3521251,80.0037515,23.25,67,5.6,26,1766499059
245606282,Malavalli,12.3864073,77.0589464,20.33,56,2.32,102,1766499059
245606844,Krishnarajanagara,12.438561,76.3836699,20.43,49,2.91,86,1766498513
245607252,Rayakottai,12.5136509,78.0323496,18.79,61,2.43,47,1766499059
245607359,Sulya,12.5576644,75.3907575,21.12,79,0.85,133,1766499059
245607629,Saligrama,12.5601566,76.2628551,19.98,49,2.28,94,1766499059
245607635,Jolarpet,12.5643214,78.5797192,20.08,64,2.22,50,1766499059
245607925,Somwarpet,12.5971883,75.8466865,15.49,69,0.94,323,1766499059
245608408,Krishnarajapete,12.6655205,76.4896194,20.24,49,2.25,104,1766499059
245608414,Channapattana,12.6544559,77.2042594,19.68,56,3.35,91,1766499059
245608560,Subramanya,12.6677868,75.6131771,20.69,79,0.88,97,1766499059
245608828,Vaniyambadi,12.6787174,78.6199879,20.0,66,2.09,46,1766499059
245609115,Vepanapalli,12.7017272,78.1944154,19.52,60,3.06,48,1766499059
245609200,Anekal,12.7086373,77.6993972,21.08,63,3.96,86,1766499059
245609255,Ramanagara,12.7252766,77.2804797,19.34,55,3.53,89,1766499059
245610023,Arkalgud,12.7627771,76.0623411,19.07,47,1.07,15,1766499059
245610069,Puttur,12.7632858,75.2018421,20.67,81,0.64,251,1766499059
245610098,Holenarasipura,12.7852158,76.2431266,19.89,46,1.72,57,1766499059
245610394,Ullal,12.8181202,74.8459375,26.58,69,1.54,310,1766499059
245610557,Nagamangala,12.8196077,76.7542189,19.84,49,1.46,104,1766499059
245612139,Sarjapura,12.8600866,77.7861352,21.1,56,1.54,70,1766499059
245612228,Shravanabelagola,12.858127,76.4870114,19.8,46,2.07,73,1766499059
245612641,Mangaluru,12.8698101,74.8430082,26.43,69,1.54,310,1766499059
245614133,Kolar Gold Fields,12.9545994,78.2731252,17.4,67,3.28,78,1766498867
245614962,Magadi,12.9567353,77.2242281,18.33,50,2.8,85,1766499059
245616106,Belthangadi,12.9903521,75.2825052,20.79,75,0.69,5,1766499059
245616482,Maluru,13.0060343,77.9382839,20.89,64,3.48,98,1766499059
245616527,Bethamangala,13.0053979,78.3303624,17.71,70,3.17,83,1766499059
245617423,Moodabidri,13.0699218,74.9977469,25.9,69,1.54,310,1766499059
245617692,Mulki,13.0904094,74.7870474,26.56,69,1.54,310,1766499059
245617701,Arakkonam,13.0839782,79.6700892,20.95,77,3.88,47,1766499059
245617971,Avadi,13.1194809,80.1026704,25.24,73,3.6,50,1766499059
245618507,Kolar,13.1367201,78.1337246,17.66,68,3.23,97,1766498626
245618753,Turuvekere,13.1627196,76.6680675,20.17,41,3.49,38,1766499059
245618783,Mulabagilu,13.1660479,78.3927241,17.46,72,2.89,86,1766499059
245618812,Belur,13.1645671,75.8634851,18.17,46,2.74,35,1766499059
245619070,Karkala,13.2145414,74.9951861,21.14,77,0.8,37,1766499059
245619134,Chittoor,13.2161224,79.0972819,20.05,74,2.46,50,1766499059
245619208,Kalasa,13.2322235,75.3582366,17.04,67,0.74,93,1766499059
245619678,Arasikere,13.3159809,76.256849,20.03,42,2.74,44,1766499059
245619852,Chikkamagaluru,13.318014,75.7738743,17.44,48,2.56,43,1766499059
245620044,Srinivaspur,13.340085,78.2117487,17.6,70,3.21,88,1766499059
245620117,Udupi,13.3419169,74.7473232,23.42,72,1.55,320,1766499059
245620290,Punganuru,13.36385,78.5721781,17.6,76,2.14,48,1766499059
245620464,Sidlaghatta,13.3885218,77.8641332,20.05,63,2.82,72,1766499059
245620767,Chikkanayakanahalli,13.4190772,76.6202776,20.49,42,3.85,45,1766499059
245621225,Chowdepalle,13.4336063,78.6904747,17.77,77,1.71,47,1766499059
245621251,Satyavedu,13.4433561,79.9553361,20.05,83,2.95,10,1766499059
245621695,Sakharayapattana,13.4331791,75.920889,19.13,46,2.37,34,1766499059
245621763,Hebri,13.459429,74.991552,20.55,84,1.65,50,1766499059
245622252,Koratagere,13.5215422,77.2358911,19.12,53,2.72,55,1766499059
245622274,Koppa,13.533207,75.3633986,17.96,48,0.44,91,1766499059
245622545,Kaduru,13.5527523,76.0142384,19.68,46,2.54,36,1766499059
245623159,Chandragiri,13.5842501,79.3166721,24.38,84,2.71,54,1766499059
245623308,Narasimharajapura,13.6107959,75.5117301,18.73,47,1.48,83,1766499059
245623398,Gauribidanuru,13.6114523,77.5167805,20.0,56,3.52,68,1766499059
245623778,Kundapura,13.6250993,74.6915722,24.2,66,1.58,356,1766499059
245624149,Madhugiri,13.6601789,77.2140882,19.63,53,2.85,54,1766499059
245624404,Tirthahalli,13.6901992,75.2463699,18.15,54,0.44,25,1766499059
245624497,Tarikere,13.7062309,75.8183561,20.2,47,2.68,78,1766499059
245624809,Bagepalli,13.7836611,77.7972379,19.12,64,3.77,79,1766499059
245624875,Hosadurga,13.7987759,76.2831034,20.89,44,3.84,41,1766499059
245625010,Hindupur,13.8306127,77.492635,20.73,54,3.76,60,1766499059
245625138,Bhadravathi,13.8502075,75.7037863,20.65,46,3.23,71,1766498868
245625219,Bainduru,13.8662536,74.6270036,24.18,68,1.59,31,1766499059
245625411,Hosanagara,13.916789,75.0657952,18.86,59,0.54,112,1766499059
245625473,Shivamogga,13.9326093,75.574978,20.44,47,2.87,59,1766499059
245625497,Madakasira,13.9405457,77.272588,20.91,52,3.85,47,1766499059
245625591,Venkatagiri,13.957582,79.5809332,21.3,83,1.64,62,1766499059
245625781,Bhatkal,13.9873619,74.5544089,24.35,67,1.22,45,1766499059
245625922,Channagiri,14.0252,75.925,21.17,45,4.0,67,1766498815
245626123,Murdeshwar,14.0959549,74.4883354,24.39,47,1.16,58,1766499059
245626213,Penukonda,14.0846808,77.5966537,21.4,55,3.67,67,1766499059
245626253,Pavagada,14.0994177,77.2804049,21.67,51,4.04,48,1766499059
245626598,Sagara,14.1665017,75.0263852,20.19,47,1.64,69,1766499059
245626604,Santebennur,14.1698888,76.0033586,21.41,45,3.93,73,1766499059
245626649,Kothacheruvu,14.1870879,77.7671355,21.74,58,3.08,89,1766499059
245626754,Talaguppa,14.2148828,74.911064,18.93,58,0.79,56,1766499059
245626796,Honnali,14.2389785,75.6457434,21.48,44,3.23,80,1766499059
245626938,Shikaripura,14.2639661,75.3587796,20.93,45,2.67,81,1766499059
245626969,Honnavar,14.2810827,74.4446716,22.75,74,1.05,47,1766499059
245627089,Challakere,14.3167885,76.6521533,22.65,45,4.57,73,1766499059
245627131,Siddapura,14.3409562,74.8924253,19.29,58,0.9,36,1766499059
245627153,Malebennuru,14.3533447,75.7384255,21.57,44,3.66,84,1766499059
245627232,Siralkoppa,14.381916,75.2487921,21.05,46,2.97,71,1766499059
245627273,Dharmavaram,14.4138405,77.7208432,23.19,53,3.9,93,1766499059
245627362,Kumta,14.4271622,74.4117058,23.95,72,0.99,3,1766499059
245627782,Kovur,14.5036085,79.9868404,21.97,79,2.69,67,1766499059
245627800,Harihara,14.5116874,75.809288,22.11,44,3.78,83,1766499059
245627947,Kalyandurg,14.5517958,77.1119702,22.96,48,3.67,83,1766499059
245628061,Gokarna,14.5439629,74.3184418,25.36,69,1.46,334,1766499059
245628114,Kamalapuram,14.5962938,78.6704194,22.78,64,3.35,123,1766499059
245628312,Sirsi,14.6192362,74.8388611,20.24,48,1.72,54,1766499059
245628328,Ranebennur,14.6165795,75.6341529,21.83,45,3.45,71,1766498845
245628453,Byadagi,14.6719843,75.4858218,21.64,46,3.68,58,1766499059
245628518,Ankola,14.6599889,74.3047846,23.76,75,1.12,341,1766499059
245628716,Badvel,14.7433614,79.0610394,21.76,73,2.23,110,1766499059
245628928,Harapanahalli,14.7880219,75.988032,21.61,45,3.46,83,1766499059
245628970,Hanagalla,14.7653513,75.1244336,21.08,48,3.33,52,1766499059
245628997,Haveri,14.7874825,75.3996731,21.86,46,3.96,52,1766498480
245629201,Kotturu,14.8243692,76.2252832,22.03,45,3.76,87,1766499059
245629232,Karwar,14.8120931,74.1319229,25.2,72,2.33,341,1766499059
245629527,Ramapura,14.8812342,76.7822541,22.27,48,2.51,88,1766499059
245629640,Bankapura,14.9217443,75.2639298,21.81,45,3.87,62,1766498615
245629715,Uravakonda,14.9467802,77.2577907,23.3,48,3.2,96,1766499059
245629805,Yellapura,14.9634438,74.7120788,20.28,48,1.86,81,1766499059
245629822,Mundgod,14.9715262,75.0413079,21.56,45,3.53,85,1766499059
245629838,Chagalamarri,14.9645072,78.5891171,22.37,66,3.12,112,1766499059
245629844,Savanuru,14.9750243,75.3397064,21.92,44,3.9,63,1766499059
245629877,Shiggaon,14.9899007,75.2234815,21.38,45,3.82,76,1766499059
245629932,Huvina Hadagali,15.020624,75.9318973,22.56,46,3.12,65,1766499059
245629980,Hagaribommanahalli,15.0468189,76.2117626,23.11,43,4.0,71,1766499059
245630135,Pamuru,15.0944,79.4138,21.72,77,2.49,118,1766499059
245630301,Lakshmeshvara,15.1248456,75.472885,21.83,43,3.62,80,1766499059
245630640,Kalaghatagi,15.1818921,74.9718465,24.55,45,3.12,88,1766499059
245630791,Mundaragi,15.2051817,75.8840183,22.74,41,3.71,63,1766499059
245630803,Kandukur,15.213,79.9071,22.03,79,3.12,121,1766498783
245630859,Shirahatti,15.234576,75.5791999,21.53,42,3.52,86,1766499059
245630941,Kundagola,15.2565128,75.2478662,24.03,44,4.08,101,1766499059
245631144,Kamalapura,15.3044681,76.4756219,22.27,40,2.8,55,1766499059
245631185,Sirvel,15.3211685,78.5344897,22.62,60,3.44,104,1766499059
245631205,Haliyal,15.3299733,74.7646665,20.87,44,2.74,54,1766499059
245631247,Tanguturu,15.3401504,80.0393196,22.86,75,3.1,124,1766499059
245631741,Kampli,15.4061695,76.604451,21.84,37,2.61,45,1766499059
245631744,Kanigiri,15.4064336,79.5066283,21.06,73,2.67,125,1766499059
245631838,Gadag-Betageri,15.4221812,75.6376639,22.14,40,4.19,82,1766498513
245631851,Annigeri,15.4260116,75.4333351,22.15,40,4.21,84,1766499059
245631922,Gangavathi,15.4308872,76.5319723,21.71,36,2.78,42,1766499059
245631974,Dharwad,15.4540505,75.0066516,23.47,50,2.06,100,1766499059
245632123,Holagunda,15.4884707,77.0462224,22.96,36,3.31,45,1766499059
245632231,Tekkalakote,15.5337852,76.8772225,22.44,34,3.52,41,1766499059
245632245,Valpoi,15.531466,74.1372751,21.41,62,0.87,65,1766499060
245632331,Navalgund,15.5582208,75.3538481,21.88,41,4.02,66,1766499060
245632375,Kanakagiri,15.5696792,76.4189879,21.33,33,3.46,42,1766499060
245632380,Naregalla,15.5736978,75.8078454,21.96,35,4.55,72,1766499060
245632434,Sankhali,15.5626483,74.0114543,21.26,69,0.98,15,1766498726
245632442,Kitturu,15.5993334,74.7878902,20.79,41,3.26,59,1766499060
245632505,Adoni,15.6261417,77.2723701,22.21,36,2.69,52,1766499060
245632509,Yelburga,15.6152511,76.0127786,21.41,32,4.31,65,1766498923
245632575,Siruguppa,15.6345569,76.8937407,22.55,31,3.53,39,1766499060
245632682,Ron,15.6996944,75.7349912,21.85,34,3.92,72,1766499060
245632739,Pernem,15.7166084,73.7972383,22.01,70,2.48,357,1766499060
245632742,Naragunda,15.7220381,75.3846247,21.38,39,3.69,61,1766499060
245632803,Gajendragad,15.7322026,75.9644618,20.94,32,3.94,70,1766499060
245632883,Kushtagi,15.7571579,76.190682,20.84,31,3.94,64,1766499060
245632887,Turavihala,15.7620689,76.5976263,21.7,30,3.77,47,1766499060
245632931,Yemmiganuru,15.7680956,77.4819037,23.03,39,2.07,74,1766499060
245632940,Savadatti,15.7671818,75.1174834,20.98,40,3.57,62,1766499060
245632954,Sindhanur,15.7692192,76.7549604,21.92,30,3.42,43,1766498938
245632993,Vetapalem,15.7807768,80.3070955,22.91,75,3.57,138,1766499060
245633107,Banda,15.8136549,73.8634219,21.68,64,1.69,27,1766499060
245633115,Bailahongala,15.816422,74.8568692,21.57,38,3.58,79,1766499060
245633221,Mantralayam,15.9413643,77.4236981,23.22,32,1.12,65,1766499060
245633278,Munavalli,15.8537336,75.1201998,21.47,39,3.63,72,1766499060
245633356,Nandikotkur,15.8562,78.27,23.31,47,1.87,80,1766499060
245633361,Vengurla,15.8619866,73.6321565,24.23,68,3.88,343,1766499060
245633538,Muragod,15.8910179,74.9310127,21.16,38,3.69,80,1766499060
245633662,Sawantwadi,15.9079601,73.8205306,20.91,62,1.89,31,1766499060
245633850,Ilakal,15.9598085,76.11564,21.57,31,4.02,74,1766499060
245634001,Manvi,15.9967483,77.0481181,22.59,28,1.57,40,1766499060
245634035,Aiza,16.0154973,77.6665729,22.69,39,1.41,76,1766499060
245634071,Kudal,16.0087654,73.6871941,22.2,64,2.42,4,1766499060
245634116,Mudagal,16.012447,76.4410153,21.63,29,3.77,72,1766499060
245634369,Hunagund,16.0618821,76.0603359,21.97,30,4.13,77,1766499060
245634631,Kavitala,16.1074146,76.7943062,21.32,29,2.37,89,1766499060
245634764,Lingasugur,16.1563,76.5242,21.96,29,2.86,95,1766499060
245634769,Lokapura,16.1627427,75.3685939,22.3,31,4.09,73,1766499060
245634772,Siravara,16.1753157,77.02154,22.22,28,1.36,106,1766499060
245634831,Gokak,16.1693033,74.8224338,21.6,35,3.29,65,1766499060
245634966,Raichur,16.1983225,77.3527444,22.33,30,1.45,74,1766499060
245635096,Gadahinglaj,16.2236857,74.3515888,20.95,37,2.88,75,1766499060
245635123,Tenali,16.2377735,80.6464219,23.26,81,2.76,144,1766499060
245635168,Hukkeri,16.230857,74.6029767,21.25,35,3.41,64,1766499060
245635270,Sankeshwara,16.2595741,74.4843495,20.92,34,3.58,69,1766499060
245635276,Kankavali,16.2659486,73.7100588,20.34,63,1.48,23,1766499060
245635445,Gargoti,16.3159183,74.1442177,21.13,39,2.21,76,1766499060
245635537,Bilagi,16.3464175,75.6190861,22.35,29,3.93,68,1766499060
245635541,Muddebihala,16.3351078,76.1339556,21.92,30,3.88,74,1766499060
245635562,Mudhol,16.3338591,75.2870794,21.95,30,4.04,63,1766499060
245635719,Vuyyuru,16.3649657,80.8426132,23.05,78,1.54,110,1766499060
245635855,Mahalingapura,16.3879888,75.1115893,21.31,29,4.31,60,1766499060
245635917,Nippani,16.4020402,74.3842372,21.39,34,3.25,73,1766499060
245636037,Devadurga,16.4210218,76.9330038,22.16,30,2.01,139,1766499060
245636066,Chikkodi,16.4265276,74.5861323,20.82,31,3.83,69,1766499060
245636099,Gudivada,16.4330413,80.9936856,23.06,75,2.88,138,1766499060
245636122,Kolahara,16.4719099,75.695105,22.35,28,4.13,70,1766499060
245636198,Narasapuram,16.4386399,81.7014603,21.79,77,2.78,109,1766499060
245636222,Hunasagi,16.4579407,76.5170932,21.51,32,1.74,53,1766499060
245636296,Talikoti,16.474468,76.311706,22.11,31,2.84,62,1766499060
245636309,Rabakavi Banahatti,16.4787444,75.1201255,21.56,28,4.22,60,1766499060
245636315,Mangalagiri,16.4318209,80.5688069,22.93,75,3.09,155,1766499053
245636355,Piduguralla,16.4822329,79.8856947,21.84,57,1.42,77,1766499060
245636374,Rayabag,16.4916168,74.7741341,20.77,30,3.79,64,1766499060
245636409,Teradala,16.4936178,75.0468551,21.35,29,4.29,61,1766499060
245636415,Tadepalle,16.4791081,80.61834,23.01,78,1.54,110,1766499060
245636426,Jamakhandi,16.503896,75.2910386,21.89,27,3.93,60,1766499060
245636442,Makhtal,16.5010823,77.5133174,22.48,30,3.16,95,1766499060
245636545,Surapura,16.5208523,76.7591995,20.55,33,1.03,67,1766499060
245636573,Kaikaluru,16.5511918,81.213131,21.61,77,2.87,128,1766499060
245636751,Bhimavaram,16.5427689,81.527344,21.23,78,2.14,125,1766499060
245636776,Gannavaram,16.5407546,80.8051601,22.97,78,1.54,110,1766499060
245636833,Gurazala,16.5589293,79.6368235,22.02,50,1.74,69,1766499060
245636944,Basavana Bagevadi,16.5738547,75.9747123,21.68,29,4.07,81,1766499060
245636946,Kagal,16.5750891,74.3152571,20.92,31,3.03,63,1766499060
245637103,Akividu,16.582052,81.3732748,21.31,79,2.31,132,1766499060
245637218,Dachepalli,16.5932206,79.7363829,22.16,49,2.0,67,1766499060
245637517,Mummidivaram,16.6442012,82.1078853,20.35,81,1.74,111,1766499060
245637569,Managoli,16.6523998,75.8127383,22.0,28,4.07,86,1766499060
245637638,Kembhavi,16.6513126,76.5325062,21.65,31,2.52,39,1766499060
245637716,Kurundwad,16.6810968,74.5915436,21.69,28,4.06,61,1766499060
245637781,Shahapura,16.6991627,76.8410045,21.63,32,2.33,30,1766499060
245638179,Gogi,16.73202,76.747477,21.8,31,2.56,29,1766499060
245638244,Narayanpet,16.7477612,77.4949954,21.31,32,2.87,54,1766499060
245638257,Mahbubnagar,16.7434538,77.9923191,20.02,40,2.95,68,1766499060
245638351,Yadgiri,16.7670964,77.1403984,21.68,32,2.89,47,1766499060
245638386,Jaysingpur,16.7789886,74.5564244,21.89,27,4.17,58,1766499060
245638443,Nandigama,16.7734733,80.2855279,22.83,51,1.24,348,1766499060
245638469,Gurumathakal,16.8679694,77.3929333,19.92,32,2.83,51,1766499060
245638536,Tadepallegudem,16.8165294,81.5296984,21.32,74,3.33,151,1766499060
245638591,Devara Hipparagi,16.8159903,76.0650583,22.32,29,3.99,105,1766499060
245638614,Miraj,16.8190307,74.6432382,22.25,26,4.29,57,1766499060
245638671,Vijayapura,16.8269911,75.7175387,22.34,27,3.63,102,1766499060
245638704,Tikota,16.8431559,75.5226828,22.17,26,3.25,94,1766499060
245638710,Lanja,16.8589596,73.5486886,20.01,50,1.49,18,1766499060
245638734,Sangli,16.8502534,74.5948885,22.42,26,4.35,57,1766499060
245638776,Miryalaguda,16.8710119,79.5617353,22.25,37,2.82,33,1766499060
245638877,Jaggayyapeta,16.8930111,80.098646,22.42,44,1.36,347,1766499060
245638961,Sindagi,16.9194778,76.2350305,22.67,29,3.79,113,1766499060
245639040,Vissannapeta,16.9418867,80.783779,22.01,48,1.95,52,1766499060
245639074,Ashta,16.9452,74.4071,21.84,26,4.39,54,1766499060
245639211,Kodada,16.9947802,79.9749826,21.85,41,1.81,352,1766499060
245639254,Ratnagiri,16.9933521,73.2954371,23.88,61,3.39,353,1766499060
245639328,Jevaragi,17.0121947,76.7752353,21.64,32,3.18,56,1766499060
245639458,Jath,17.0489913,75.21771,22.4,26,2.73,91,1766499060
245639466,Wadi,17.0471835,76.9921386,20.98,34,3.35,45,1766499060
245639494,Nalgonda,17.0504406,79.2669235,20.98,39,3.5,30,1766499060
245639541,Chintalapudi,17.0687339,80.9848668,21.85,49,1.3,40,1766499060
245639598,Peddapuram,17.0756736,82.1433164,20.84,77,2.44,78,1766499060
245639710,Shahabad,17.1241133,76.9418923,20.85,34,3.53,43,1766498628
245639711,Jangareddygudem,17.1238205,81.2959633,21.77,52,0.79,105,1766499060
245639719,Chittapura,17.1196144,77.0858642,20.84,34,3.31,42,1766499060
245639828,Korukonda,17.1687627,81.8297169,24.06,69,3.6,110,1766499060
245639866,Indi,17.1744599,75.9553764,22.89,29,4.02,75,1766499060
245639868,Sedam,17.1772683,77.2823552,20.8,34,3.19,38,1766499060
245639919,Afzalpur,17.2005764,76.3605783,22.51,30,4.25,62,1766499060
245640004,Kusumanchi,17.225571,79.9554551,20.29,46,3.35,354,1766499060
245640039,Chityal,17.2314588,79.1293471,19.75,41,3.59,30,1766499060
245640203,Yeleswaram,17.2872691,82.1052362,19.09,84,1.95,64,1766499060
245640372,Kalaburagi,17.3310003,76.8334228,20.55,35,4.3,35,1766499060
245640543,Hyderabad,17.360589,78.4740613,20.19,49,2.06,80,1766498526
245640661,Maindargi,17.4566199,76.2944772,22.27,31,5.23,53,1766499060
245640705,Sangole,17.4362688,75.1932291,23.59,25,3.79,70,1766499060
245640761,Rampachodavaram,17.439828,81.7752354,19.01,70,0.88,64,1766499060
245640798,Chincholi,17.465199,77.4189669,19.62,38,3.94,25,1766499060
245640871,Guhagar,17.4838362,73.191061,22.56,61,3.15,358,1766499060
245640950,Mangalwedha,17.5128795,75.4486224,23.44,27,4.49,70,1766499060
245640988,Akkalkot,17.5261113,76.2059338,22.32,31,5.25,59,1766499060
245641002,Chiplun,17.5330311,73.5123013,21.32,45,0.7,47,1766499060
245641054,Rajavommangi,17.5444104,82.2357592,18.37,86,0.84,62,1766499060
245641119,Kohir,17.5996678,77.7169218,18.43,39,3.57,22,1766499060
245641220,Palwancha,17.5976713,80.7057072,19.41,52,0.48,222,1766499060
245641263,Kamalapura,17.5784274,76.9894251,20.08,37,4.43,32,1766499060
245641316,Rahimatpur,17.5909766,74.1990559,20.12,32,1.9,54,1766499060
245641542,Solapur,17.6699734,75.9008118,22.89,31,5.18,63,1766499060
245641554,Pandharpur,17.677817,75.3340992,22.9,29,4.24,66,1766499061
245641560,Narsipatnam,17.6711811,82.6124371,18.67,84,1.34,15,1766499061
245641635,Satara,17.688321,74.0041726,19.1,33,1.81,38,1766499061
245641713,Koregaon,17.7004918,74.1580401,19.56,33,1.59,56,1766499061
245641797,Chittaguppa,17.6985069,77.2161692,18.38,40,4.11,27,1766499061
245641832,Khed,17.7184198,73.3956694,21.21,44,0.84,53,1766499061
245641840,Visakhapatnam,17.6935526,83.2921297,22.1,78,1.03,0,1766499015
245641982,Dapoli,17.7580463,73.1887078,21.21,55,2.38,354,1766499061
245642030,Humanabad,17.7717915,77.128494,18.68,39,4.03,35,1766499061
245642040,Wardhannapet,17.7733267,79.5761394,19.04,44,2.88,353,1766499061
245642071,Sabbavaram,17.7905129,83.1244927,21.84,78,1.03,0,1766499061
245642117,Konta,17.8110113,81.3830211,19.04,54,0.97,189,1766499061
245642122,Mohol,17.8091566,75.6443849,22.86,30,4.84,61,1766499061
245642153,Naldurg,17.8149863,76.278965,20.97,34,4.62,64,1766499061
245642191,Chodavaram,17.8296788,82.9344845,18.79,81,1.05,318,1766499061
245642240,Tupran,17.8406731,78.4777406,18.24,41,3.57,64,1766499061
245642264,Umarga,17.8365426,76.6250052,20.36,36,4.46,68,1766499061
245642266,Chintapalli,17.8706618,82.351824,15.38,75,0.76,78,1766499061
245642273,Ghanpur,17.8520633,79.3766411,18.53,44,2.36,11,1766499061
245642298,Gajwel,17.8456745,78.6828741,17.93,41,3.39,57,1766499061
245642325,Basavakalyan,17.8694654,76.9518062,19.07,38,3.93,55,1766499061
245642463,Bidar,17.9166022,77.511315,18.63,39,3.37,25,1766498673
245642504,Panchgani,17.9239543,73.7992681,18.55,35,1.65,94,1766498871
245642744,Phaltan,17.9907746,74.4298834,20.91,32,1.42,111,1766499061
245642809,Tuljapur,18.0086617,76.0707924,21.12,34,4.45,53,1766499061
245642968,Bhalki,18.0484556,77.2176221,18.71,39,2.98,59,1766499061
245643121,Lasurne,18.0876323,74.7656871,21.66,30,3.59,59,1766499061
245643248,Indapur,18.1171342,75.0262819,21.95,29,4.28,54,1766499061
245643279,Vizianagaram,18.1141255,83.4114389,19.11,79,0.66,213,1766499061
245643475,Paderu,18.0791533,82.6632234,13.39,76,0.3,44,1766499061
245643509,Nilanga,18.1291893,76.7494127,19.19,38,3.87,71,1766499061
245643698,Huzurabad,18.2018461,79.3956971,18.42,44,0.54,89,1766499061
245643711,Parkal,18.1980527,79.7010375,18.67,44,0.82,304,1766499061
245643899,Ausa,18.2510243,76.500958,19.22,38,3.61,53,1766499061
245643928,Aurad,18.2548557,77.4151663,18.89,39,2.08,63,1766499061
245644077,Srikakulam,18.2949307,83.8938844,20.29,75,2.59,97,1766499061
245644163,Chipurupalle,18.3120723,83.5686458,19.22,78,0.79,170,1766499061
245644195,Murud,18.3220393,72.9604835,23.82,58,2.77,338,1766499061
245644386,Malakanagiri,18.3640874,81.8887516,17.29,46,0.25,21,1766499061
245644515,Sukma,18.3932222,81.6569457,18.1,46,1.7,294,1766499061
245644553,Udgir,18.3921349,77.1196118,18.65,37,2.32,70,1766499061
245644568,Sircilla,18.3897573,78.8085973,19.22,42,1.24,92,1766499061
245644629,Latur,18.3982273,76.5625913,19.16,37,3.68,52,1766499061
245644748,Narasannapeta,18.4150974,84.0446974,20.27,76,2.5,91,1766499061
245647444,Salur,18.517553,83.2050385,19.35,69,1.02,179,1766499061
245648398,Degloor,18.5496593,77.5790877,19.3,39,1.98,56,1766499061
245649778,Palakonda,18.6036798,83.7559931,19.12,81,1.9,112,1766499061
245649847,Peddapalli,18.6177235,79.3868069,19.21,42,0.42,52,1766499061
245650150,Nizamabad,18.6732693,78.0978477,18.88,41,1.75,64,1766498801
245650182,Mukhed,18.7057087,77.3686564,19.77,37,2.15,49,1766499061
245650192,Bodhan,18.6536941,77.8936802,19.17,40,2.32,63,1766499061
245650564,Kaij,18.7141179,76.0651612,19.81,37,2.93,60,1766499061
245650742,Ambajogai,18.7318232,76.3854836,19.67,37,2.59,79,1766499061
245650826,Talegaon Dabhade,18.7337107,73.6728593,20.85,65,1.99,72,1766498873
245651172,Patoda,18.805051,75.4830621,20.13,35,3.33,66,1766499061
245651372,Palasa-Kasibugga,18.7694542,84.4179944,19.15,81,1.09,48,1766499061
245651719,Bijapur,18.7935679,80.815939,17.02,47,0.24,298,1766499061
245651836,Jagtial,18.7957081,78.9161959,19.49,42,1.2,96,1766499061
245651919,Ashti,18.8035447,75.1714406,21.54,32,3.81,60,1766499061
245652013,Dharur,18.8204315,76.1137332,19.66,37,2.47,74,1766499061
245652090,Shirur,18.8265886,74.3725252,22.29,29,4.77,49,1766499061
245652158,Metpalli,18.8488213,78.6258901,19.2,41,1.12,41,1766499061
245652255,Parli,18.8485632,76.5297124,20.69,36,2.63,92,1766499061
245652319,Khed,18.8528676,73.8846758,20.89,31,3.22,40,1766499061
245652405,Kandhar,18.8718185,77.1924092,19.88,36,2.69,59,1766499061
245652482,Uran,18.8808,72.9386,28.01,61,3.52,319,1766499061
245652535,Dharmabad,18.8915074,77.8438253,19.74,37,3.19,42,1766499061
245656349,Sompeta,18.9424871,84.5839641,19.94,77,0.55,212,1766499061
245657607,Gangakhed,18.9692648,76.7504256,21.02,35,3.18,86,1766499061
245658856,Beed,18.9904059,75.7542291,21.19,36,2.35,114,1766499061
245660150,Wadwani,18.9906344,76.0410132,20.96,36,2.28,113,1766499061
245662569,Sonpeth,19.0258671,76.4746527,20.94,37,2.99,103,1766499061
245663676,Neral,19.0266373,73.3181185,24.12,29,1.94,121,1766499061
245664076,Bellampalli,19.0639032,79.4873121,19.41,44,2.04,325,1766499061
245669071,Ichchapuram,19.1127045,84.6887188,19.69,77,1.46,225,1766499061
245669251,Kutru,19.0932122,80.7904019,18.55,41,1.27,340,1766499061
245669664,Ahilyanagar,19.092952,74.7493451,21.07,33,2.51,81,1766499061
245678278,Rayagada,19.1696,83.418,18.22,51,1.52,272,1766499061
245679511,Nabarangapur,19.232359,82.5494484,15.86,44,2.76,52,1766499061
245683441,Bhiwandi,19.3025562,73.0588072,28.27,100,2.28,314,1766498955
245683856,Utnur,19.369594,78.7736687,18.33,43,1.91,22,1766499061
245683866,Asifabad,19.3593461,79.2960404,19.05,44,1.35,296,1766499061
245683882,Ghodegaon,19.3496722,74.8811801,21.42,34,3.17,127,1766499061
245683897,Rahuri,19.3891776,74.6499061,20.93,35,2.13,132,1766499061
245683986,Himayatnagar,19.4259433,77.8768022,19.39,40,2.25,73,1766499061
245684028,Selu,19.4548608,76.4388052,20.44,37,3.01,80,1766499061
245684544,Aundah,19.5408846,77.0408752,19.34,38,3.1,85,1766499061
245684569,Akole,19.5419344,74.0092582,19.71,36,1.23,60,1766499061
245684766,Partur,19.5856691,76.2139769,21.05,36,3.5,57,1766499061
245684933,Kondagaon,19.5885769,81.6628742,15.76,42,2.44,29,1766499061
245684980,Asika,19.6060868,84.6724523,18.76,74,1.7,154,1766499061
245685095,Kinwat,19.6211721,78.2003138,19.44,41,1.53,96,1766499061
245685191,Mantha,19.6443869,76.3869764,20.92,37,3.39,49,1766499061
245685440,Palghar,19.6978751,72.7686942,23.32,66,3.58,344,1766499061
245685572,Hingoli,19.7158472,77.1388362,19.92,39,2.92,83,1766499061
245685652,Gangapur,19.6977616,75.0124415,22.06,32,2.84,79,1766499061
245685804,Rajura,19.7792814,79.3657272,18.89,46,1.11,323,1766499061
245685894,Puri,19.8076083,85.8252538,21.91,62,3.24,140,1766499061
245686073,Jalna,19.8393394,75.8818806,20.4,36,3.89,42,1766498805
245686151,Junagarh,19.8610794,82.9353189,17.45,45,1.44,116,1766499061
245686245,Chhatrapati Sambhaji Nagar,19.877263,75.3390241,23.01,49,0.0,0,1766498691
245686261,Kopargaon,19.885,74.4762,21.8,32,4.96,29,1766499061
245686395,Pusad,19.9080759,77.5706555,20.32,39,1.5,83,1766499061
245686460,Vaijapur,19.9266272,74.7286135,21.89,32,4.94,29,1766499061
245686499,Deolali,19.9380426,73.8567115,20.03,36,2.81,46,1766499061
245686536,Chandrapur,19.9508161,79.2986673,19.21,44,1.47,21,1766499061
245686563,Sindkhed Raja,19.9540802,76.1257663,20.33,36,3.84,44,1766499061
245686635,Risod,19.9778005,76.7897566,20.06,38,3.15,29,1766499061
245686667,Lonar,19.9850956,76.5226964,20.43,35,3.59,27,1766499061
245686722,Dahanu,19.9887244,72.733848,23.22,63,2.63,27,1766499061
245686746,Pakhanjur,20.0387175,80.6244334,17.06,41,2.18,43,1766499061
245686763,Nashik,20.0112475,73.7902364,19.94,35,2.87,57,1766499061
245686808,Deulgaon Raja,20.0151691,76.0353471,20.04,36,3.82,44,1766499061
245686900,Yeola,20.0429079,74.4880389,22.03,31,5.02,31,1766499061
245686924,Arni,20.0653876,77.9519923,20.58,39,1.94,106,1766499061
245686972,Wani,20.0574,78.9565,19.97,42,1.65,59,1766499061
245687015,Mul,20.0651224,79.6767277,19.08,45,2.36,320,1766499061
245687032,Ranpur,20.0632415,85.3444328,17.19,68,1.63,165,1766499061
245687193,Digras,20.1041813,77.7167937,20.73,38,1.31,112,1766499061
245687196,Washim,20.1029211,77.1353872,20.05,38,2.27,64,1766499061
245687324,Ghatanji,20.1427699,78.3140429,20.51,39,2.08,101,1766499061
245687473,Kesinga,20.1903644,83.2196816,18.05,43,0.66,108,1766499061
245687619,Jafarabad,20.1957484,76.0105856,20.58,35,3.22,41,1766499061
245687695,Malegaon,20.2367604,76.9998051,20.36,36,1.54,51,1766499061
245687733,Warora,20.2342965,79.0027504,19.91,43,1.76,93,1766499061
245687808,Kannad,20.2654298,75.1322409,19.58,35,3.02,54,1766499061
245687871,Silvassa,20.2736768,73.0045787,22.3,56,1.13,18,1766499061
245687886,Khandapada,20.2637344,85.1713704,19.65,53,1.27,106,1766499061
245687944,Titlagarh,20.288849,83.1552029,18.45,42,0.65,41,1766499061
245688086,Chandvad,20.3278147,74.2387228,19.03,34,3.33,57,1766499061
245688138,Chikhli,20.349113,76.2524987,20.23,35,1.67,61,1766499061
245688264,Vapi,20.371603,72.9166501,23.36,64,3.12,351,1766499061
245688424,Yavatmal,20.390344,78.1328518,19.71,39,2.02,137,1766499061
245688820,Patur,20.4602277,76.9380493,21.74,34,0.83,133,1766499061
245688877,Chalisgaon,20.4626213,75.0069134,22.54,32,3.07,68,1766499061
245688972,Cuttack,20.4686,85.8792,20.1,63,3.43,152,1766499026
245689050,Phulbani,20.4762322,84.2348517,14.99,52,1.17,201,1766498960
245689146,Ner,20.4919069,77.8678515,21.42,36,1.99,152,1766499061
245689269,Choudwar,20.5276823,85.910155,18.56,61,3.46,151,1766498639
245689350,Kendrapara,20.5042089,86.4159937,18.04,67,2.45,145,1766499061
245689525,Malegaon,20.5576062,74.5246514,23.23,31,3.25,55,1766499061
245689561,Hinganghat,20.5484132,78.8411206,20.56,41,2.64,120,1766499061
245690171,Balapur,20.6683381,76.773777,22.7,32,0.94,251,1766499062
245690244,Nandgaon Khandeshwar,20.6798162,77.8324046,22.13,35,1.89,155,1766499062
245690517,Akola,20.7116604,77.002632,22.8,33,1.57,194,1766499062
245690608,Athmallik,20.7218533,84.5347509,17.64,48,1.08,268,1766499062
245690647,Murtijapur,20.7346452,77.3699281,22.51,34,1.69,164,1766498932
245690727,Wardha,20.7464941,78.5997922,19.76,41,1.95,113,1766499062
245690789,Chikhli,20.7581399,73.0598983,23.29,31,3.28,35,1766498650
245690941,Kodinar,20.795759,70.7045453,23.23,55,2.14,26,1766499062
245691052,Jamner,20.8084074,75.7801609,22.22,30,3.34,52,1766498785
245691064,Nuapada,20.8085208,82.5340241,16.63,40,0.22,204,1766499062
245691069,Pauni,20.7926372,79.6359627,19.38,40,1.49,14,1766499062
245691085,Dhamangaon,20.7857563,78.1400186,20.96,38,2.43,140,1766499062
245691124,Una,20.8198898,71.0391641,23.26,45,2.79,48,1766499062
245691299,Angul,20.8382426,85.0973949,18.71,46,1.59,219,1766498939
245691342,Subarnapur,20.8453864,83.909083,18.01,42,0.1,259,1766499062
245691345,Jajpur,20.8522696,86.3385714,18.17,59,3.07,145,1766499062
245691518,Bhuban,20.8821978,85.8334076,20.12,47,0.25,133,1766499062
245691590,Malkapur,20.8875432,76.1984229,21.65,32,3.37,23,1766499062
245691673,Dhule,20.898,74.7732,24.59,30,2.58,36,1766499062
245691743,Veraval,20.9101099,70.365279,23.92,61,0.84,181,1766499062
245692062,Navsari,20.952407,72.9323831,25.94,37,4.16,14,1766499062
245692256,Sakri,20.9910829,74.3154391,22.25,32,1.93,112,1766499062
245692508,Amalner,21.0400032,75.0703748,23.74,29,3.17,42,1766499062
245692511,Bagbahra,21.0473726,82.3863574,16.55,39,0.66,70,1766499062
245692542,Kankadahad,21.0701647,85.5697992,18.81,51,1.19,54,1766499062
245692561,Jalgaon Jamod,21.0479439,76.5317596,21.13,34,3.88,12,1766499062
245692624,Rajula,21.038617,71.4438845,24.94,32,4.21,31,1766499062
245692835,Mahuva,21.0914409,71.7621979,25.3,33,4.16,14,1766499062
245692843,Valod,21.0488646,73.2615399,23.72,31,3.7,47,1766499062
245692878,Akot,21.0949,77.0526,21.29,35,2.1,340,1766499062
245693021,Vyara,21.1121514,73.3960108,23.46,31,3.07,53,1766499062
245693096,Mangrol,21.1241507,70.1199203,24.83,60,2.12,260,1766499062
245693160,Kondhali,21.1373833,78.6402291,18.91,39,2.1,69,1766499062
245693215,Mauda,21.1438248,79.3955738,19.13,41,2.81,22,1766499062
245693244,Savda,21.1508089,75.8885226,21.67,31,3.66,21,1766499062
245693327,Songadh,21.1702124,73.5622874,23.04,30,2.46,77,1766499062
245693335,Navapur,21.1599,73.7941,23.7,30,2.99,114,1766499062
245693374,Karanja,21.1629711,78.4102353,19.93,36,1.94,50,1766499062
245693571,Dongargarh,21.1884868,80.7560121,17.93,38,0.53,22,1766499062
245693758,Kamptee,21.2170645,79.1964178,19.17,40,2.57,39,1766499062
245693887,Raver,21.2469,76.036,21.21,32,3.25,14,1766499062
245693891,Chopda,21.2471857,75.2989555,22.6,29,4.12,44,1766499062
245693923,Pithora,21.2530999,82.5156818,17.39,36,0.69,123,1766499062
245694020,Shindkheda,21.270921,74.745656,23.99,27,3.74,66,1766499062
245694157,Paratwada,21.2989934,77.5167471,19.26,37,2.88,3,1766498843
245694188,Burhanpur,21.3118839,76.2291992,20.94,35,3.11,22,1766499062
245694292,Mendarda,21.3232985,70.4425757,23.18,35,2.22,112,1766499062
245694333,Bargarh,21.3335004,83.6190492,19.1,35,0.25,312,1766498766
245694338,Visavadar,21.3417058,70.7534299,23.78,30,3.99,74,1766499062
245694465,Shirpur,21.3527715,74.8841836,23.55,27,3.84,55,1766499062
245694497,Nandurbar,21.363778,74.2411418,23.99,27,3.56,74,1766499062
245694499,Talaja,21.3545788,72.0368814,25.3,33,3.9,5,1766499062
245694520,Amgaon,21.3733211,80.3823893,17.86,45,0.16,4,1766499062
245694618,Tumsar,21.3820399,79.7500206,18.33,42,3.35,358,1766499062
245694660,Kharora,21.4004069,81.9263837,18.79,32,1.44,134,1766499062
245694751,Umarpada,21.4563995,73.4757224,22.64,32,2.61,38,1766499062
245694869,Chandipur,21.4699365,87.0518592,19.99,56,1.59,176,1766499062
245695019,Warud,21.473109,78.2728518,19.29,40,2.95,3,1766499062
245695276,Palitana,21.5236104,71.8219597,24.88,30,2.61,36,1766499062
245695386,Shahada,21.5409188,74.4716616,24.18,27,4.36,54,1766499030
245695829,Sausar,21.6535265,78.7969518,18.31,42,3.15,17,1766499062
245695875,Pandhurna,21.5954798,78.5258489,18.47,40,3.31,11,1766499062
245696207,Kasdol,21.6193745,82.4270994,17.74,35,0.61,203,1766499062
245696303,Dediapada,21.6271369,73.5898076,22.66,31,1.97,54,1766499062
245696356,Netrang,21.6395746,73.3661964,22.93,30,3.14,62,1766499062
245696813,Porbandar,21.6409,69.611,26.44,40,3.23,347,1766499062
245697018,Digha,21.6224576,87.5069427,20.87,58,2.05,212,1766499062
245697134,Balodabazar,21.6564735,82.1605962,18.71,32,0.86,200,1766499062
245697921,Lathi,21.724718,71.3899959,24.66,30,2.76,94,1766499062
245698422,Sihor,21.720494,71.9605587,25.5,27,3.11,47,1766499062
245698484,Dahej,21.7118382,72.5898083,25.67,51,3.9,26,1766499062
245698822,Bharuch,21.7080427,72.9956936,23.99,29,3.67,30,1766499062
245698883,Bhatapara,21.7353478,81.9444592,18.7,32,0.65,167,1766498587
245698892,Chital,21.7346125,71.2004615,24.78,29,2.97,79,1766499062
245698935,Dhoraji,21.734812,70.4491538,24.95,29,3.56,71,1766499062
245699008,Betnoti,21.7418915,86.8456965,18.03,50,1.15,174,1766499062
245699360,Bhavnagar,21.7718836,72.1416449,25.63,40,4.08,23,1766499062
245699431,Karanjia,21.7578311,85.9726727,16.51,46,2.01,96,1766499062
245699519,Katangi,21.7725576,79.8038021,17.99,43,3.9,347,1766499062
245699551,Multai,21.7745903,78.2635058,16.49,44,2.96,18,1766499062
245699585,Contai,21.7805923,87.7448286,19.52,57,2.21,240,1766499062
245700113,Balaghat,21.8133417,80.1916685,17.81,43,3.4,9,1766499062
245700317,Khandwa,21.8203752,76.3555424,21.36,36,3.04,87,1766499062
245700780,Bhikangaon,21.8669568,75.9635237,22.14,33,3.25,115,1766499062
245701030,Jam Kandoma,21.8926077,70.4972555,25.14,28,3.97,64,1766499062
245701207,Koira,21.9068705,85.2505093,15.27,46,0.66,110,1766499062
245701571,Baripada,21.9342456,86.7308825,18.64,45,1.12,245,1766499062
245701646,Amla,21.9244135,78.1252113,15.74,48,1.67,24,1766499062
245701960,Amod,21.9907832,72.8706259,24.46,31,3.3,23,1766499062
245702016,Kawardha,22.0059254,81.2332055,17.29,42,1.94,305,1766499062
245702187,Akaltara,22.0237482,82.4260255,18.19,34,1.84,290,1766499062
245702303,Champua,22.0668387,85.6655176,16.93,46,0.35,151,1766499062
245702363,Karjan,22.0523055,73.1216703,23.07,30,2.81,25,1766499062
245702404,Chhindwara,22.0578244,78.9386203,16.67,45,3.8,19,1766499062
245702560,Bilaspur,22.0785627,82.1476475,17.97,35,1.66,323,1766499062
245702627,Seoni,22.0910049,79.5507791,16.23,47,3.29,1,1766499062
245702699,Baihar,22.1050116,80.5481854,15.08,49,1.54,1,1766499062
245702731,Kasrawad,22.1229442,75.6097401,22.44,32,1.68,66,1766499062
245702738,Sundargarh,22.119973,84.0369931,16.92,39,1.53,237,1766499062
245702899,Rajgangpur,22.1911263,84.5867472,17.33,39,1.46,203,1766499062
245702909,Junnardeo,22.1950168,78.5946421,15.34,48,2.41,27,1766499062
245702919,Barwala,22.1518623,71.8957058,25.67,27,3.97,52,1766499062
245703079,Botad,22.1686,71.6685,25.25,28,3.73,49,1766498573
245703098,Diamond Harbour,22.1926886,88.1894879,20.99,34,1.97,297,1766498495
245703174,Gharghoda,22.1674127,83.3485457,16.87,37,0.72,351,1766499062
245703195,Khirkiya,22.1671863,76.8618051,20.04,40,3.09,96,1766499062
245703270,Maheshwar,22.177435,75.5873514,22.41,32,1.63,56,1766499062
245703277,Jamai,22.2049139,78.5505553,14.38,48,2.25,32,1766499062
245703307,Khambhaliya,22.2129642,69.6533407,25.73,34,4.64,34,1766499062
245703327,Kalavad,22.2143736,70.3834253,25.52,30,4.4,40,1766499062
245703375,Dharmapuri,22.1492635,75.3431477,22.8,31,1.01,90,1766499062
245703541,Dwarka,22.2424747,68.9671448,24.65,50,3.69,360,1766498495
245703581,Padra,22.2412214,73.0855259,23.05,46,1.54,10,1766499062
245703654,Barwaha,22.2543335,76.0371519,21.46,36,1.73,61,1766499062
245704131,Khambhat,22.3166806,72.6243126,23.64,42,4.65,22,1766499062
245704314,Kharagpur,22.34309,87.3012875,19.99,32,0.22,164,1766499062
245704499,Baruipur,22.3607154,88.4325575,21.69,28,2.18,324,1766499062
245704549,Ranpur,22.351524,71.7118111,25.46,28,4.04,43,1766499062
245704620,Timarni,22.3664266,77.2224788,19.21,44,2.65,101,1766499062
245705238,Medinipur,22.4207025,87.3269963,19.88,32,0.38,174,1766499062
245705252,Lawngtlai,22.5280366,92.898086,14.5,76,1.3,74,1766499062
245705453,Nainpur,22.4294001,80.106204,16.82,45,2.92,1,1766499062
245705543,Vasad,22.4516351,73.0671647,23.03,31,3.74,10,1766499062
245706199,Chakulia,22.4830145,86.7179264,18.89,35,1.15,270,1766499062
245706782,Sayla,22.5494312,71.4820838,23.8,35,4.07,9,1766499062
245706983,Chaibasa,22.550434,85.8024498,17.88,43,1.24,203,1766499062
245707150,Kolkata,22.5726459,88.3638953,17.96,88,0.0,0,1766498813
245707305,Limbdi,22.5674,71.8062,25.05,30,3.59,27,1766499062
245708116,Kalol,22.6103179,73.4617061,22.62,32,3.54,19,1766499062
245708282,Wankaner,22.6153934,70.9495617,24.11,36,4.48,15,1766499062
245708308,Muli,22.6217,71.4527,23.65,37,4.04,5,1766499062
245708518,Bagli,22.6414301,76.3490059,18.73,40,1.91,32,1766499062
245708524,Tankara,22.6562177,70.7486911,24.59,34,4.83,26,1766499062
245708559,Kannod,22.6663174,76.7436921,19.53,43,1.91,41,1766499062
245708563,Nasrullahganj,22.6830589,77.2682559,19.81,43,2.37,63,1766499063
245708569,Jodiya,22.6925104,70.3054102,25.27,46,5.41,34,1766499063
245708580,Betma,22.6875139,75.6116714,20.12,60,1.54,50,1766499062
245708582,Amarkantak,22.670465,81.7588417,11.54,48,2.27,332,1766499063
245708613,Chakradharpur,22.6761161,85.6288955,16.84,45,0.57,329,1766499063
245708650,Basirhat,22.6611962,88.8660215,20.57,38,2.15,344,1766499063
245708708,Nadiad,22.6895535,72.8713603,22.69,33,2.94,29,1766498939
245708839,Sohagpur,22.6994891,78.1962111,17.9,46,1.39,136,1766499063
245708902,Wadhawan,22.710552,71.6784206,23.85,37,4.08,353,1766499063
245709012,Dholka,22.726607,72.4411863,23.13,32,2.82,61,1766499063
245709027,Indore,22.7203616,75.8681996,20.06,60,1.54,50,1766499063
245709182,Kheda,22.7516133,72.6857205,22.99,32,2.5,53,1766499063
245709357,Baduria,22.7366796,88.7873803,20.06,34,2.27,334,1766499063
245709394,Sitapur,22.7785318,83.4950985,15.27,40,3.05,334,1766499063
245709447,Bankheri,22.7713106,78.5341689,17.55,47,1.85,140,1766499063
245709458,Pipariya,22.7591836,78.3532766,17.76,46,1.5,141,1766499063
245709792,Mahudha,22.8201982,72.9386868,23.05,32,2.46,43,1766499063
245709936,Morbi,22.8176662,70.8345928,24.36,35,4.19,22,1766499063
245710005,Bavla,22.8278859,72.3684741,23.52,34,2.53,48,1766499063
245710073,Dahod,22.8358786,74.2556823,21.59,30,2.12,28,1766499063
245710090,મુન્દ્રા,22.8393153,69.7249477,24.53,42,5.65,22,1766499063
245710203,Lakhtar,22.8553332,71.7916919,23.66,40,4.11,341,1766499063
245710288,Lunglei,22.8931695,92.7470391,13.44,73,1.26,71,1766499063
245710349,Arambagh,22.8765856,87.7908631,19.25,32,0.91,6,1766499063
245710379,Kathlal,22.8985648,72.9908519,23.09,31,2.11,55,1766499063
245710574,Kareli,22.9333855,79.0618955,17.69,46,2.2,127,1766499063
245710801,Balasinor,22.9561711,73.3370129,23.03,31,2.89,39,1766499063
245710868,Petlawad,23.0101544,74.7977374,22.1,29,3.18,71,1766499063
245710917,Baghicha,22.9773184,83.6532045,11.91,44,2.69,347,1766499063
245711038,Dhrangadhra,22.9914292,71.4663753,23.64,42,3.88,343,1766499063
245711197,Ahmedabad,23.0215374,72.5800568,25.04,41,0.0,0,1766499063
245711214,Kapadvanj,23.0232402,73.0727531,23.03,32,1.84,75,1766499063
245711223,Halvad,23.0159728,71.1797028,23.32,41,3.51,352,1766499063
245711263,Badi,23.0333288,78.0755755,18.02,48,1.31,6,1766499063
245711451,Sabroom,23.0024859,91.7306775,16.77,73,0.42,266,1766499063
245711471,Udaipura,23.0745681,78.5133515,18.41,45,1.39,78,1766499063
245711510,Khunti,23.0770961,85.2800459,15.0,40,2.77,347,1766499063
245711517,Pandua,23.0751399,88.2828926,18.86,76,1.72,330,1766499063
245711597,Anuppur,23.1184595,81.6992038,14.99,47,1.77,288,1766499063
245711604,Maliya,23.0931749,70.7599456,24.74,34,3.48,38,1766499063
245711729,Lunavada,23.1290668,73.611114,23.06,31,2.57,51,1766499063
245711959,Indpur,23.1568159,86.9227264,18.88,26,1.71,26,1766499063
245711973,Jabalpur,23.1701522,79.9324505,20.55,64,1.54,0,1766499063
245711998,Bundu,23.1609186,85.5901102,16.83,37,2.59,310,1766499063
245712057,Ujjain,23.1885131,75.7716562,19.77,37,2.56,56,1766499063
245712131,Patdi,23.1909514,71.7959976,24.4,44,3.79,316,1766499063
245712158,Santrampur,23.1927742,73.8959255,23.24,31,2.89,13,1766499063
245712209,Kushalgarh,23.1990144,74.4520656,22.48,31,1.85,46,1766499063
245712256,Manendragarh,23.2167227,82.2035806,14.85,44,3.21,343,1766498947
245712347,Bayad,23.2248593,73.2153042,22.65,33,1.41,96,1766499063
245712478,Birnagar,23.2367126,88.5552105,19.66,28,1.83,325,1766499063
245712569,Shantipur,23.2464,88.4437,19.45,28,1.71,325,1766499063
245712575,Kalol,23.2452165,72.4966223,24.89,36,2.34,349,1766499063
245712627,Bhopal,23.2584857,77.401989,18.65,47,1.87,102,1766499063
245712879,Thenzawl,23.2813507,92.7754037,12.39,79,0.81,74,1766499063
245712900,ભચાઉ,23.2977,70.3459,24.19,37,3.88,18,1766499063
245712908,Silwani,23.3011771,78.4404437,18.81,44,1.86,12,1766499063
245713011,Chhatna,23.3115,86.9669,19.13,27,1.73,16,1766499063
245713050,Kala Pipal,23.3358151,76.8350507,18.91,42,1.89,37,1766499063
245713075,Malpur,23.3594332,73.4649753,22.98,31,2.52,98,1766499063
245713120,Raisen,23.330111,77.7842511,18.03,48,1.27,94,1766499063
245713248,નખત્રાણા,23.3495267,69.2653851,23.14,34,3.29,73,1766499063
245713401,Nabadwip,23.4086684,88.3657991,19.31,28,1.51,324,1766499063
245713604,Krishnanagar,23.4058481,88.4958935,19.63,28,1.68,325,1766499063
245713638,Gairatganj,23.4101246,78.2212624,17.95,46,1.71,11,1766499063
245713676,Shajapur,23.4240705,76.2838697,19.9,38,2.01,35,1766499063
245713705,Bagidora,23.4033108,74.2662004,23.04,32,1.8,355,1766499063
245713738,Mansa,23.425103,72.6583024,22.14,38,2.31,318,1766499063
245713741,Prantij,23.4372086,72.8518061,22.12,37,2.0,316,1766499063
245713981,Chapra,23.5203126,88.5498071,19.53,29,1.41,326,1766499063
245714005,Melaghar,23.4947164,91.3300645,18.54,59,0.98,244,1766499063
245714065,Majholi,23.4998001,79.9253697,17.0,45,1.07,49,1766499063
245714070,Adra,23.4970875,86.6750811,18.37,30,2.0,21,1766499063
245714160,Udaipur,23.5416162,91.4917593,17.97,61,0.78,222,1766499063
245714171,Gaurjhamar,23.5247531,78.9373642,18.01,43,0.92,10,1766499063
245714207,Umaria,23.5246558,80.8361408,15.41,49,0.95,192,1766499063
245714304,Champhai,23.4787183,93.3198879,9.26,83,0.38,65,1766499063
245714488,Sarangpur,23.5702907,76.4722144,20.06,38,2.37,24,1766499063
245714553,રાપર,23.570746,70.6450466,24.52,30,2.75,32,1766499063
245714770,Mahesana,23.6015557,72.3867981,22.21,37,1.94,332,1766499063
245715021,Ramgarh,23.6303213,85.5215878,15.95,43,2.44,294,1766499063
245715032,Barkakana,23.6187565,85.4517696,15.76,43,2.38,291,1766499063
245715096,Katwa,23.644278,88.1287333,18.85,32,1.81,321,1766498725
245715331,Tehatta,23.7339059,88.5333576,19.2,32,0.76,323,1766499063
245715368,Harij,23.6931596,71.9008666,23.5,33,3.7,345,1766499063
245715469,Gyaraspur,23.6690334,78.1124604,18.62,45,1.23,85,1766499063
245715873,Latehar,23.74423,84.499839,13.34,48,1.5,201,1766499063
245716231,Aizawl,23.7277631,92.7179947,11.1,75,0.9,141,1766499063
245716313,Lengpui,23.8314147,92.6287719,14.65,75,0.74,148,1766499063
245716317,Baghmara,23.789329,86.2041444,17.57,37,1.95,332,1766499063
245716500,Nirsa,23.784437,86.7068534,18.16,36,2.69,0,1766499063
245716719,Ramanujganj,23.806378,83.6998108,13.43,49,2.07,217,1766499063
245717050,Shamsabad,23.8140102,77.495995,18.55,44,1.63,36,1766499063
245717341,Dungarpur,23.8538893,73.7087177,22.39,33,0.45,152,1766499063
245717374,Agartala,23.8312377,91.2823821,20.01,88,2.06,320,1766499063
245717556,Idar,23.8411191,73.0000307,21.76,34,1.95,320,1766499063
245717603,Basoda,23.8480899,77.941471,18.71,45,1.09,36,1766499063
245717704,Gomoh,23.8735307,86.151587,17.15,39,2.17,333,1766499063
245717922,Ambassa,23.9216436,91.8511393,16.69,72,0.49,137,1766499063
245718040,Biaora,23.9167592,76.9106389,19.93,37,2.88,3,1766499063
245718189,Beldanga,23.9396239,88.2495778,18.53,37,2.43,327,1766499063
245718278,Sainthia,23.9496876,87.6829354,18.78,39,2.31,343,1766499063
245718296,Jamtara,23.9630448,86.8027604,17.39,39,2.93,344,1766499063
245718371,Kherwara,23.9853145,73.5945403,21.89,34,0.5,330,1766499063
245718386,Karimpur,23.9816034,88.6296098,19.55,36,0.97,336,1766499063
245718627,Rajgarh,24.0051159,76.733677,20.56,37,3.08,2,1766498800
245718821,Bhabhar,24.0701471,71.5976062,23.3,29,3.39,326,1766499063
245718896,Medininagar,24.0397192,84.0658109,15.5,44,2.38,226,1766499063
245718914,Panki,24.0377324,84.4765431,14.1,46,1.38,202,1766499063
245718934,Khedbrahma,24.0310837,73.0484016,21.68,34,2.05,10,1766499063
245719010,Hariharpara,24.0436901,88.4230988,18.81,38,1.99,328,1766499063
245719038,Khilchipur,24.0386844,76.5779471,20.67,37,2.94,12,1766499063
245719235,Mandsaur,24.0682898,75.0742388,20.16,38,1.52,110,1766499063
245719335,Suwasra,24.069588,75.6533298,20.71,36,1.86,61,1766499063
245719504,Berhampore,24.1044927,88.2510635,18.43,40,2.49,338,1766499038
245719542,Sarada,24.1440935,73.824259,22.33,32,1.19,302,1766499063
245719602,Kurwai,24.1185386,78.0408203,18.75,44,1.82,17,1766499063
245719719,Kamalpur,24.1737224,91.8171322,17.44,67,0.75,203,1766499063
245719807,Domkal,24.1209008,88.5499213,18.97,39,1.94,329,1766499063
245719857,Salumbar,24.1390484,74.0461856,21.88,32,1.05,57,1766499063
245720113,Palanpur,24.1709794,72.4366375,21.71,33,3.11,348,1766499063
245720129,Chachaura-Binaganj,24.1778426,77.0000858,19.3,38,2.84,358,1766499063
245720167,Giridih,24.1862602,86.3087238,15.88,44,2.77,314,1766499063
245720417,Murshidabad,24.1745993,88.2721335,18.51,41,2.4,337,1766499063
245720562,Kailashahar,24.3194297,91.9984289,17.27,69,0.95,187,1766499063
245720680,Sagardighi,24.2899135,88.0922003,18.75,41,2.48,332,1766499063
245720847,Dumka,24.2677937,87.2485495,17.02,43,2.12,335,1766499063
245720866,Madhupur,24.2741982,86.6392318,16.69,42,2.72,322,1766499063
245721110,Deesa,24.2594977,72.1803348,22.15,33,3.28,346,1766499063
245721527,Bhagwangola,24.3334648,88.3070509,18.51,43,2.36,334,1766499063
245721929,Chhatarpur,24.3695641,84.1885769,15.58,43,0.89,233,1766499063
245722070,Uchahera,24.3810731,80.7832544,16.69,48,1.65,310,1766499063
245722097,Aron,24.3813938,77.4168008,18.37,41,2.2,354,1766499064
245722187,Chhoti Sadri,24.3829511,74.7013558,20.07,35,1.53,15,1766499064
245722220,Tharad,24.3897272,71.6292685,23.0,25,3.44,1,1766499064
245722452,Katlicherra,24.469067,92.5581981,16.75,80,1.0,142,1766499064
245722454,Mungaoli,24.4089425,78.0965907,18.72,41,1.97,16,1766499064
245722549,Aklera,24.4150218,76.5663056,20.67,38,1.81,18,1766499064
245722563,Raghunathganj,24.4615088,88.0665362,18.9,42,2.6,324,1766498941
245722571,Bari Sadri,24.4155188,74.4751013,20.16,34,1.43,58,1766499064
245722601,Jhumri Tilaiya,24.4348984,85.529513,14.1,47,1.74,240,1766499064
245722773,Murarai,24.4393904,87.86126,18.47,42,2.4,314,1766498781
245722860,Palel,24.450839,94.0262982,12.09,88,1.06,207,1766499064
245723288,Deoghar,24.4898318,86.6990182,16.25,44,2.28,308,1766499064
245723410,Abu Road,24.4828256,72.7820384,21.36,35,2.46,19,1766499064
245723787,Dobhi,24.5332368,84.9053475,15.15,44,2.1,222,1766499064
245723853,Rewa,24.5359,81.2934,16.52,48,2.01,317,1766499064
245724072,Doongla,24.5071182,74.328998,20.27,33,1.54,38,1766499064
245724263,Sherghati,24.5684657,84.8016642,15.29,44,1.81,235,1766499064
245724337,Satna,24.5751308,80.8325721,16.54,49,1.93,316,1766499064
245724412,Ashoknagar,24.576189,77.7302895,18.63,39,2.61,347,1766499064
245724484,Jhalawar,24.5931704,76.1664528,20.9,38,1.88,61,1766499064
245724699,Thoubal,24.6386954,93.996871,14.98,100,0.0,0,1766499064
245724723,Bishnupur,24.6267287,93.7600454,14.68,87,1.37,279,1766499064
245724795,Ramganj Mandi,24.6453169,75.9430409,20.78,38,1.78,64,1766499064
245724853,Chhabra,24.6685519,76.8478646,19.91,40,2.36,1,1766498726
245725264,Hailakandi,24.6846916,92.5645836,17.38,73,0.2,120,1766499064
245725394,Farakka,24.7868983,87.9099061,18.1,47,2.08,302,1766499064
245725805,Tikamgarh,24.7428616,78.8322022,18.62,44,2.11,25,1766499064
245725891,Jhajha,24.7697902,86.3775631,16.18,47,1.69,265,1766499064
245725916,Sanchore,24.7533864,71.7720096,23.44,27,4.17,19,1766499064
245725969,Vallabhnagar,24.6733041,74.0023613,20.14,56,0.0,0,1766499064
245726240,Pindwara,24.7926,73.0469,20.06,35,2.44,14,1766499064
245726282,Gaya,24.7964355,85.0079563,16.17,41,1.74,253,1766499064
245726283,Wazirganj,24.8005234,85.2380746,16.15,42,1.59,237,1766499064
245726361,Lakhipur,24.7928227,93.0090947,17.02,77,1.04,106,1766499064
245726529,Rafiganj,24.8186239,84.6333022,16.1,41,1.82,265,1766499064
245726854,Karimganj,24.8647214,92.3681114,18.3,65,1.57,360,1766499064
245726892,Kaliachak,24.8626213,88.0186202,18.29,47,2.35,300,1766498830
245727072,Barharwā,24.8571403,87.7789524,17.76,48,1.81,287,1766499064
245727130,Nawada,24.893152,85.5451599,15.94,45,1.56,227,1766499064
245727157,Sirohi,24.8858,72.8589,20.68,34,2.46,13,1766498930
245727220,Kamjong,24.8577847,94.5107757,12.6,78,1.91,340,1766499064
245727260,Banka,24.8810826,86.9197693,17.15,46,2.43,272,1766499064
245727279,Majhagawan,24.9179651,80.8071061,16.43,50,1.9,299,1766499064
245727301,Dehri,24.90776,84.1901412,16.29,43,2.68,284,1766498905
245727323,Chhatarpur,24.9204657,79.5839755,18.15,50,1.68,345,1766499064
245727339,Chittorgarh,24.8837157,74.6244155,20.07,34,1.73,343,1766499064
245727468,Jamui,24.9275595,86.2254945,16.0,49,1.56,266,1766499064
245727537,Nathdwara,24.9303453,73.8224937,19.65,35,4.02,325,1766499064
245727599,Chitalwana,24.9084204,71.660289,23.91,26,3.95,25,1766499064
245727745,Kapasan,24.8877449,74.3123201,19.67,35,3.4,340,1766499064
245727752,Sasaram,24.9509656,84.0148733,16.0,45,2.47,259,1766499064
245727939,Singoli,24.9682,75.2916,20.7,33,0.7,17,1766499064
245728086,Koraon,24.9978827,82.0718342,16.97,48,2.23,267,1766499064
245728335,Bhinmal,25.0071053,72.2653077,21.87,30,3.28,44,1766499064
245728395,Maharajpur,25.0169621,79.7265182,18.33,51,1.93,330,1766499064
245728426,Malda,25.0057449,88.1398483,18.53,47,2.52,280,1766499064
245728460,Ahraura,25.0159366,83.0329811,16.58,46,2.09,237,1766499064
245728554,Rajgir,25.0299973,85.4207368,16.37,43,1.59,266,1766499064
245728576,Mahāgama,25.0344023,87.3185899,16.47,53,1.81,261,1766499064
245728592,Giriak,25.0272676,85.5246175,16.38,44,1.74,258,1766499064
245728606,Amarpur,25.0399854,86.9028384,17.14,47,2.58,267,1766499064
245728666,Bhabua,25.0420354,83.6087865,16.01,46,2.09,232,1766499064
245728711,Kudra,25.046606,83.7920943,15.92,45,2.33,242,1766499064
245728724,Warisaliganj,25.0167067,85.6398857,16.19,46,1.84,245,1766499064
245728761,Chakia,25.0483283,83.2195469,16.34,46,2.08,235,1766499064
245728860,Manikpur Sarhat,25.0651315,81.0996924,16.69,50,2.03,268,1766499064
245729061,Lakshimpur,25.0052919,86.3960437,16.03,49,1.83,272,1766499064
245729100,Kishanganj,25.1069614,76.6369912,20.57,41,1.46,47,1766499064
245729442,Islampur,25.141775,85.2064677,16.06,43,2.13,284,1766499064
245729538,Chunar,25.1281931,82.8835399,16.86,46,2.42,252,1766499064
245729559,Lauri,25.1409432,80.0057406,18.0,53,2.03,311,1766499064
245729724,Gangrar,25.051447,74.6101496,19.48,35,2.72,341,1766499064
245729854,Haflong,25.1645049,93.017599,13.47,76,0.47,301,1766499064
245729891,Bijolia,25.162885,75.3237803,20.01,32,0.7,355,1766499064
245729900,Mohania,25.1676579,83.621622,16.12,46,2.27,255,1766499064
245730074,Mahur,25.1830797,93.1133862,13.73,79,0.32,146,1766499064
245730100,Ratua,25.2044556,87.9285908,18.32,48,2.35,254,1766499064
245730140,Shankargarh,25.1836065,81.6166539,17.23,48,2.63,278,1766499064
245730239,Baghmara,25.1927615,90.6459328,17.23,63,1.56,345,1766499064
245730323,Sadri,25.1866458,73.4527029,19.83,36,1.1,42,1766499064
245730332,Gudha Malani,25.1893,71.7218,23.89,25,3.59,26,1766499064
245730344,Lakhisarai,25.176771,86.0931767,16.19,50,2.18,252,1766499064
245730375,Bali,25.1895706,73.2905263,19.9,35,1.64,25,1766499064
245730395,Bihar Sharif,25.193859,85.5208617,16.45,45,2.39,270,1766499064
245730439,Kota,25.1737019,75.8574194,21.28,38,1.91,122,1766499064
245730493,Dhorimanna,25.2039581,71.4385071,23.68,25,4.01,18,1766499064
245730561,Chitrakoot Dham,25.2158257,80.9164001,17.58,50,1.97,257,1766499064
245730565,Jehanabad,25.2113384,84.9873701,16.18,43,2.4,292,1766499064
245730598,Chitrakoot,25.1743883,80.8691307,17.54,50,1.89,258,1766499064
245730655,Bikramganj,25.2219788,84.2653139,16.3,44,2.45,278,1766499064
245730768,Ekangar Sarai,25.2220539,85.2298038,16.1,44,2.33,286,1766499064
245730850,Babina,25.2393732,78.4698691,18.78,45,2.0,9,1766499064
245730854,Balurghat,25.2234352,88.7780654,18.96,46,2.44,268,1766499064
245730999,Surajgarha,25.252957,86.2260458,16.21,52,2.16,245,1766499064
245731197,Bhagalpur,25.2494829,86.9828131,17.08,50,2.9,266,1766499064
245731299,Sohra (Cherrapunji),25.2777336,91.7292416,9.41,75,2.51,357,1766499064
245731608,Desuri,25.2794664,73.5688591,19.74,35,0.93,45,1766499064
245731609,Barhiya,25.2861994,86.0201258,16.38,50,2.41,260,1766499064
245731688,Atarra Buzurg,25.2884104,80.5746861,17.98,51,2.02,274,1766499064
245731739,Mahoba,25.2886851,79.8792071,17.98,53,1.98,301,1766498698
245731855,Nursarai,25.2710548,85.4578766,16.4,45,2.55,277,1766499064
245731951,Maibong,25.3021275,93.1332922,14.2,81,1.28,174,1766499064
245732095,Keshoraipatan,25.2915232,75.9399658,21.18,38,1.83,122,1766499064
245732685,Jalore,25.3476006,72.6260916,20.85,31,2.11,15,1766499064
245732721,Bhilwara,25.348,74.636,19.82,34,3.35,337,1766498883
245732875,Khliehriat,25.3587124,92.3669702,10.53,85,0.72,329,1766499064
245733005,Ahore,25.3682474,72.7809896,20.97,31,2.18,16,1766499064
245733024,Rajapur,25.3863662,81.1494181,17.84,49,2.57,263,1766499064
245733193,Kabrai,25.4015677,80.0035135,18.19,53,2.31,286,1766499064
245733208,Mokama,25.3958052,85.9220644,16.38,50,2.6,267,1766499064
245733382,Balia,25.4234048,86.313751,16.42,52,2.58,251,1766499064
245733425,Garahni,25.4068456,84.5558167,16.31,45,2.37,271,1766499064
245733431,Begusarai,25.4139122,86.1348804,16.39,52,2.64,256,1766499064
245733463,Kumarganj,25.4251628,88.7317867,19.05,47,2.51,249,1766499064
245733742,Jowai,25.4434703,92.1973181,9.97,85,0.63,278,1766498702
245733956,Prayagraj,25.4381302,81.8338005,18.13,46,2.77,269,1766499064
245734195,Bakhtiyarpur,25.4586233,85.5369022,16.49,47,2.55,277,1766499064
245734244,Jagdispur,25.4668347,84.4179931,16.2,46,2.37,264,1766499064
245734376,Suriyawan,25.4641655,82.4181237,17.11,48,2.66,266,1766498480
245734459,Langting,25.4972313,93.1136328,15.18,78,1.05,166,1766499064
245734633,Barh,25.4711351,85.7060668,16.46,49,2.61,274,1766499064
245734674,Manjhanpur,25.5306196,81.3749382,17.34,50,3.0,263,1766499064
245735260,Saidpur,25.5367972,83.2217547,16.73,47,2.51,266,1766499064
245735286,Baberu,25.5469357,80.7012999,18.16,51,2.72,261,1766499064
245735560,Arrah,25.560317,84.6632139,16.27,45,2.41,265,1766499064
245735648,Chirgaon,25.5735429,78.8126634,18.74,47,1.91,345,1766499064
245735697,Buxar,25.5716195,83.9729568,16.33,47,2.45,261,1766499064
245735780,Shillong,25.5759931,91.8827872,9.28,88,0.72,195,1766499064
245735969,Garautha,25.5741086,79.2975183,18.44,51,2.16,314,1766499064
245736309,Gursarai,25.6154461,79.1828015,18.38,50,2.23,314,1766499064
245736454,Meluri,25.6844515,94.6284816,11.26,98,0.28,128,1766499064
245736606,Phek,25.7098345,94.4633429,10.29,97,0.18,209,1766499064
245736648,Narwar,25.6433256,77.9117307,19.2,41,1.57,298,1766499064
245736659,Maner,25.6466488,84.8763388,13.94,45,2.49,265,1766499065
245736779,Bakhri,25.6001555,86.2558659,16.73,52,2.87,261,1766499065
245736790,Mungra Badshahpur,25.6579111,82.1902983,17.24,48,2.97,261,1766498784
245736876,Saini,25.6660544,81.3262263,17.28,51,3.03,261,1766499065
245737097,Machhlishahr,25.6875311,82.4109017,17.19,48,2.81,260,1766499065
245737511,Lakheri,25.6730413,76.1922423,20.19,37,1.0,100,1766499065
245737753,Moth,25.7294,78.9508,18.56,49,2.09,322,1766499065
245737899,Marwar Junction,25.7259059,73.6097336,20.67,32,3.07,357,1766499065
245737900,Barmer,25.745304,71.3998217,21.63,28,4.47,359,1766498958
245737927,Bhim,25.7384145,74.079374,18.09,37,2.04,337,1766499065
245737957,Ballia,25.7557446,84.1503303,16.29,47,2.44,261,1766499065
245737972,Dighwara,25.7434481,85.0010412,13.96,94,2.06,310,1766499065
245738012,Jaunpur,25.7472,82.689,17.07,48,2.61,260,1766499065
245738032,Indragarh,25.7283498,76.191368,20.46,37,0.99,99,1766499065
245738229,Nainwa,25.7698671,75.8541304,19.76,38,1.65,93,1766499065
245738383,Pali,25.7682376,73.3275135,21.39,31,3.2,356,1766498754
245738416,Chhapra,25.7784105,84.7514507,16.34,46,2.55,259,1766499065
245738425,Revelganj,25.7846684,84.6447511,16.23,47,2.5,259,1766499065
245738523,Purnia,25.7773601,87.4731227,17.66,53,3.01,269,1766499031
245738543,Karandighi,25.8157405,87.9208421,18.44,53,2.75,268,1766499065
245738612,Lumding,25.7535433,93.1731676,16.54,79,1.05,166,1766499065
245738751,Kunda,25.7172101,81.5137022,17.26,51,3.06,261,1766499065
245738958,Balotra,25.834763,72.2410908,22.69,26,4.16,2,1766498872
245739090,Asind,25.7339012,74.3321514,19.95,33,3.34,331,1766499065
245739285,Samastipur,25.8596845,85.7839038,16.98,48,3.24,269,1766499065
245739356,Rasra,25.8608909,83.8556102,16.61,47,2.48,263,1766499065
245739393,Saharsa,25.8758962,86.5926702,17.25,52,2.64,269,1766499065
245739845,Vijainagar,25.9304646,74.6513212,20.38,33,4.0,330,1766499065
245739997,Pachpadra,25.921916,72.253248,22.64,26,4.73,1,1766499065
245740030,Lanka,25.9207022,92.9502797,17.75,71,1.15,191,1766499065
245740277,Pratapgarh,25.921061,82.0023601,17.3,50,2.95,263,1766498770
245740401,Supaul,25.9463295,86.2473604,17.28,51,2.74,269,1766499065
245740499,Fatehpur,25.9291159,80.8105997,17.72,53,3.11,259,1766499065
245740768,Hamirpur,25.9516,80.1511,18.28,52,3.45,267,1766499065
245740952,Rohat,25.9582028,73.1404949,22.25,28,3.43,9,1766499065
245741207,Orai,25.9863918,79.4534538,18.36,51,3.18,282,1766499065
245741300,Wokha,26.0962958,94.2544489,11.94,82,1.57,125,1766499065
245741631,Salon,26.0286877,81.4540176,17.59,51,2.92,260,1766499065
245741665,Todaraisingh,26.0252473,75.4848698,20.47,33,3.01,323,1766499065
245741680,Dhubri,26.019642,89.991393,20.12,55,2.71,214,1766499056
245741718,Muhammadabad Gohna,26.0341851,83.3816323,16.79,48,2.19,264,1766499065
245742179,Dalmau,26.0757662,81.051715,17.89,51,3.08,257,1766499065
245742400,Mubarakpur,26.0875514,83.2905851,16.81,48,2.11,265,1766499065
245742442,Raniganj,26.0850923,87.2355105,17.6,53,2.82,276,1766499065
245742825,Masrakh,26.1037889,84.8040728,17.29,45,2.58,264,1766499065
245743334,Dinhata,26.1279625,89.4631456,20.09,49,3.03,257,1766499065
245743490,Goalpara,26.1783623,90.6226683,18.57,60,1.39,213,1766499065
245743811,Ghatampur,26.1551192,80.1674983,18.1,52,3.57,266,1766499065
245744268,Tribeniganj,26.1270382,86.8872792,17.74,52,2.83,279,1766499065
245744352,Lambhua,26.1373895,82.2278891,17.11,50,2.47,267,1766499065
245744553,Bilara,26.1818418,73.708888,20.49,30,3.87,0,1766499065
245744913,Gauriganj,26.2071366,81.69259,17.68,50,2.87,267,1766499065
245744921,Bilasipara,26.2316753,90.2324363,19.08,61,1.75,211,1766499065
245745029,Raebareli,26.2207738,81.2465203,17.98,49,2.95,260,1766498732
245745098,Pukhrayan,26.2269466,79.8397679,18.27,51,3.61,273,1766499065
245745365,Tufanganj,26.3139208,89.6665579,19.37,53,1.71,269,1766499065
245745800,Islampur,26.2563651,88.1860517,18.77,56,2.43,286,1766499065
245746201,Kasba Bonli,26.3303779,76.2270358,18.95,38,1.75,297,1766499065
245746221,Barhalganj,26.28326,83.5066212,16.69,48,2.01,275,1766499065
245746325,Barpeta,26.3257824,91.0075712,19.68,55,2.38,250,1766499065
245746398,Sapotra,26.2922765,76.7535781,20.85,36,2.47,236,1766499065
245746448,Jodhpur,26.2967719,73.0351433,21.04,28,4.23,359,1766498775
245746477,Forbesganj,26.3049106,87.2632847,17.82,54,3.0,271,1766499065
245746490,Nasirabad,26.297039,74.7369464,19.78,32,3.7,327,1766499065
245746550,Jalalpur,26.3123442,82.7378132,16.78,50,1.96,274,1766499065
245746780,Shergarh,26.3278926,72.295726,21.05,26,5.17,1,1766499065
245746927,Joura,26.3439772,77.8036975,19.04,45,0.94,71,1766499065
245747060,Nagaon,26.3482238,92.6858215,21.75,50,1.24,86,1766499065
245747223,Matabhanga,26.3413614,89.2150554,19.34,54,2.66,266,1766499034
245747296,Gohad,26.422782,78.4394152,18.65,47,2.42,302,1766499065
245747307,Musarfirkhana,26.3750048,81.8030854,17.67,50,2.72,268,1766499065
245747335,Kesariya,26.3521771,84.8707033,17.87,44,2.74,266,1766499065
245747339,Akbarpur,26.3832104,79.9488395,18.52,49,3.59,270,1766499065
245747817,Kurebhar,26.4133,82.1272,17.3,51,2.28,271,1766499065
245747845,Thakurganj,26.427636,88.1300288,18.33,59,2.63,286,1766499065
245747907,Chakia,26.4150801,85.0477734,17.76,45,2.99,266,1766499065
245748028,Akbarpur,26.4200687,82.5382541,16.84,50,1.88,281,1766499065
245748064,Rangia,26.4444441,91.6172816,18.92,58,2.41,266,1766499065
245748094,Mangaldoi,26.436303,92.0306569,19.92,53,1.32,271,1766499065
245748181,Nalbari,26.445568,91.4354335,18.62,60,2.43,268,1766499065
245748441,Jagdishpur,26.456101,81.6198203,17.85,50,2.78,266,1766499065
245748446,Dhing,26.4582273,92.4819173,21.54,46,0.64,42,1766499065
245748464,Moirabari,26.4549295,92.4228752,21.45,46,0.33,342,1766499065
245748597,Ajmer,26.4691,74.639,18.5,33,2.84,336,1766498997
245748625,Pupri,26.470735,85.7017232,17.24,50,2.64,277,1766499065
245748917,Karauli,26.4956,77.0275,19.9,39,1.01,297,1766499065
245748937,Golaghat,26.5108262,93.9743686,17.85,67,0.67,83,1766499065
245748968,Deoria,26.4998975,83.7829787,16.76,48,2.07,277,1766499065
245749215,Inhauna,26.5247536,81.4908148,17.93,49,2.81,264,1766499065
245749636,Tanda,26.5511,82.6621,16.55,50,1.55,284,1766499065
245749851,Maynaguri,26.5652519,88.8221321,18.45,59,2.31,271,1766499065
245750000,Pakridayal,26.5543618,85.0622034,17.73,45,3.11,262,1766499065
245750088,Titabor,26.5924877,94.1951629,17.65,68,1.7,88,1766499065
245750151,Jainagar,26.5882487,86.1402809,17.24,53,2.45,291,1766499065
245750237,Kalaigaon,26.5741395,91.9755449,18.97,53,1.29,323,1766499065
245750329,Sitamarhi,26.5942841,85.500428,17.28,49,2.64,273,1766498844
245750622,Baori,26.6199627,73.1801874,20.65,28,4.58,355,1766499065
245750654,Changtongya,26.5348636,94.6797413,15.64,80,1.45,151,1766499065
245750667,Dibiyapur,26.6307,79.5536,19.1,44,3.67,281,1766499065
245750861,Chauri Chaura,26.6502824,83.5873588,16.27,49,1.82,289,1766499065
245750864,Sursand,26.6447224,85.7224332,17.18,53,2.47,283,1766499065
245750977,Tezpur,26.6229928,92.7976082,19.0,56,1.66,37,1766499065
245751126,Dhaka,26.6741967,85.1670195,17.49,47,2.97,262,1766499065
245751352,Naksalbari,26.6844571,88.2001439,17.06,65,2.16,335,1766499065
245751454,Dhaulpur,26.7010642,77.896749,18.91,44,1.6,333,1766499065
245751791,Mon,26.7252584,95.0304359,17.13,72,1.03,131,1766499065
245751905,Sagauli,26.7695492,84.7416781,17.46,48,2.9,268,1766499065
245751946,Safipur,26.7377833,80.3445574,18.9,45,3.44,273,1766499065
245752013,Hata,26.7403,83.7441,16.53,49,2.08,283,1766498620
245752222,Maghar,26.7544858,83.1275735,16.05,49,1.26,292,1766499065
245752363,Bairgania,26.7400904,85.2754564,17.14,50,2.55,269,1766499065
245752537,Udalguri,26.7503815,92.0977245,17.82,56,1.78,15,1766499065
245752604,Degana,26.8958747,74.3222498,18.87,31,3.93,353,1766499065
245752671,Mohan,26.7802746,80.6745721,13.99,48,3.23,268,1766499065
245752687,Faizabad,26.7807986,82.1486589,17.01,52,1.57,292,1766499065
245752792,Rudauli,26.7492405,81.748054,17.61,50,2.29,272,1766499065
245753026,Ayodhya,26.7990707,82.2052321,16.99,52,1.46,296,1766499065
245753072,Basti,26.7895579,82.7231355,16.32,49,1.11,285,1766498964
245753079,Asop,26.7967,73.5815,19.66,30,4.14,357,1766499065
245753200,Bettiah,26.8023,84.5074,17.46,49,2.7,274,1766499065
245753279,Amguri,26.8098175,94.5249646,17.22,71,1.42,116,1766499065
245753718,Lucknow,26.8381,80.9346001,14.01,94,2.57,260,1766498307
245753746,Bilhaur,26.8424857,80.0645793,19.24,43,3.73,280,1766499065
245753934,Chariduar,26.8628617,92.7809069,16.71,59,2.4,6,1766499065
245753972,Gohpur,26.8814942,93.6138414,16.87,62,1.05,11,1766499065
245754091,Nawabganj,26.8637478,82.1381306,16.98,52,1.33,303,1766499065
245754111,Phulera,26.8750866,75.2455501,19.01,31,4.32,340,1766499065
245754293,Pinahat,26.8851057,78.374679,18.78,45,2.65,289,1766499065
245754349,Dariyabad,26.88861,81.556182,17.71,50,2.26,273,1766499065
245754360,Padrauna,26.9036455,83.9793208,16.83,50,2.3,281,1766499065
245754523,Ramkola,26.9052307,83.837023,16.67,50,2.18,281,1766499065
245754553,Nazira,26.9164974,94.736043,17.96,66,1.06,96,1766499065
245754714,Raxaul,26.9833256,84.8523069,16.69,55,2.17,288,1766499065
245754742,Malihabad,26.9231953,80.7100459,13.97,47,3.23,269,1766499065
245754750,Pokaran,26.9198813,71.9197573,19.97,26,4.41,7,1766499065
245754798,Barabanki,26.9274097,81.1948375,18.16,49,2.49,267,1766499065
245755301,Kheenvsar,26.9782849,73.4058199,19.78,29,4.42,355,1766499065
245755348,Sivasagar,26.9834936,94.6394226,17.83,63,1.48,77,1766499065
245755376,Bhalukpong,27.0137235,92.6358068,17.32,56,2.42,333,1766499065
245755386,Khonsa,26.9910099,95.5061065,15.08,78,1.67,145,1766499065
245755465,Karhal,27.0033264,78.9404642,19.21,44,3.73,285,1766499065
245755594,Nawa,27.0214531,75.0027941,18.5,32,4.13,341,1766499065
245755662,Paraspur,27.0318259,81.7802686,17.14,52,1.25,320,1766499065
245755802,Sandila,27.060558,80.5113664,18.96,46,3.51,277,1766499065
245755871,Mundwa,27.0628056,73.8216985,19.56,30,4.33,348,1766499065
245755998,Narkatiaganj,27.102923,84.4646072,16.85,56,2.65,293,1766499066
245756072,Dimow,27.1272894,94.7405111,18.28,60,1.48,50,1766499066
245756095,Itanagar,27.0979659,93.6237291,13.84,72,2.22,333,1766499066
245756164,Khadda,27.1784019,83.8715042,16.13,55,2.09,279,1766499066
245756235,Rangpo,27.1744361,88.5303403,14.56,87,1.75,17,1766499066
245756276,Siswa Bazar,27.1468901,83.7578251,16.26,53,2.12,273,1766499066
245756302,Gonda,27.1334827,81.9619743,16.81,50,1.0,348,1766499037
245756401,Namchi,27.1661262,88.3651981,8.24,91,1.29,328,1766499066
245756480,Kuchaman,27.1519,74.8621,17.86,34,3.9,348,1766499066
245756655,Achhnera,27.1771454,77.7575072,18.37,45,2.68,332,1766499066
245756663,Chomu,27.1726642,75.720359,16.9,35,3.79,342,1766499066
245756696,Fatehpur,27.1728618,81.2099027,18.02,50,2.35,275,1766499066
245756711,Bilgram,27.1749307,80.0327344,19.02,44,3.74,284,1766499066
245756783,Domariaganj,27.2041316,82.6525846,16.39,48,1.18,276,1766499066
245756912,Deomali,27.1959185,95.4642398,18.42,63,0.89,124,1766499066
245757119,Etmadpur,27.2336372,78.1981356,18.91,45,3.02,294,1766498525
245757287,North Lakhimpur,27.236211,94.1038765,17.03,59,1.81,357,1766499066
245757574,Naugarh,27.2793034,83.0855607,16.19,49,1.36,265,1766499066
245757650,Naharkatia,27.286295,95.3258308,18.12,63,0.92,50,1766499066
245757786,Ramgarh,27.2585224,75.1798734,17.75,34,4.18,342,1766499066
245757930,Farah,27.3206052,77.7622061,18.59,44,3.15,331,1766499066
245757974,Kimin,27.3057191,93.9656023,16.05,64,1.98,325,1766499066
245758023,Nichlaul,27.3134215,83.7257283,15.88,57,1.63,293,1766499066
245758236,Jairampur,27.3568967,96.0134152,15.56,75,1.51,136,1766499066
245758506,Bap,27.3747541,72.353164,19.71,29,3.96,4,1766499066
245759077,Balrampur,27.4295126,82.1854602,16.28,47,1.56,335,1766499066
245759598,Panchoo,27.5004982,73.2129316,19.16,29,4.29,359,1766499066
245759662,Biswan,27.4904821,80.995364,18.0,48,1.77,290,1766499066
245759759,Barhni,27.4971325,82.7908826,15.8,50,1.45,307,1766499066
245759954,Tulsīpur,27.5337104,82.4165115,15.76,49,1.74,328,1766499066
245760084,Mangan,27.5011476,88.5355333,12.94,81,1.16,2,1766499066
245760104,Ziro,27.538668,93.815355,8.25,75,0.84,59,1766499066
245760219,Raya,27.5575987,77.7916007,18.66,44,3.72,314,1766499066
245760261,Etah,27.56002,78.6578425,18.96,44,3.72,281,1766499066
245760340,Sitapur,27.5615568,80.6840082,18.38,47,2.65,277,1766499066
245760373,Bahraich,27.5752,81.5954,16.71,47,1.47,61,1766499066
245760886,Ladnu,27.6418,74.3949,18.75,31,4.06,339,1766499066
245760901,Kanwat,27.5889822,75.6989924,16.84,38,3.51,326,1766499066
245761333,Bhinga,27.7033838,81.9338433,15.67,48,1.56,14,1766499066
245761558,Udaipurwati,27.7309897,75.4743975,15.84,41,2.42,320,1766499066
245761946,Deshnoke,27.7986365,73.3446504,19.26,30,3.89,348,1766499066
245762061,Kasganj,27.8077034,78.6456226,18.95,42,3.85,281,1766499066
245762187,Laxmangarh,27.8214382,75.0250652,17.73,35,3.73,329,1766499066
245762524,Nawalgarh,27.8503,75.2741,16.99,38,3.25,323,1766498770
245762684,Nanpara,27.8684,81.5039,16.62,45,1.67,58,1766499066
245762879,Aligarh,27.8815412,78.0690216,18.68,44,3.87,289,1766498480
245762908,Hodal,27.8999168,77.3739284,18.65,43,3.77,306,1766499066
245763609,Fatehpur Shekhawati,27.9959965,74.9604565,18.2,32,3.84,325,1766499066
245763835,Atrauli,28.0298331,78.2853798,18.62,42,3.88,288,1766499066
245763838,Budaun,28.0367001,79.1234,18.74,40,4.02,286,1766499066
245763873,Tappal,28.0408088,77.5769278,18.69,43,3.75,294,1766499066
245763930,Mandawa,28.0558375,75.1483915,18.07,33,3.89,317,1766499066
245763956,Sri Dungargarh,28.0928483,74.0113994,19.16,29,3.85,331,1766499066
245764532,Dibai,28.205448,78.260716,18.5,41,3.89,294,1766499066
245764623,Faridpur,28.2083265,79.5375964,19.05,37,4.13,282,1766498771
245764684,Nighasan,28.235056,80.8597376,16.7,46,1.7,88,1766499066
245764716,Chirawa,28.2408,75.6448,17.83,34,4.18,299,1766499066
245765005,Ballabgarh,28.3286134,77.3238914,19.73,40,3.51,292,1766499066
245765070,Bareilly,28.355099,79.417851,19.04,36,4.18,286,1766499066
245765114,Pilani,28.3622661,75.6042342,18.23,32,4.29,297,1766499066
245765361,Palia Kalan,28.4312733,80.5810023,16.34,50,1.71,96,1766499066
245765373,Loharu,28.4279477,75.8054759,17.91,33,4.04,297,1766499066
245765390,Sardarshahar,28.4403,74.4895,19.37,27,4.1,314,1766499066
245765445,Sikandarabad,28.4520179,77.6989831,19.46,37,3.55,298,1766498921
245765589,Lunkaransar,28.4885,73.752,19.44,23,4.05,317,1766499066
245766042,Charkhi Dadri,28.5919933,76.2719817,17.81,34,4.08,292,1766499066
245766462,Bahadurgarh,28.6933239,76.9332373,16.07,36,3.49,297,1766499066
245766577,Babugarh,28.7225944,77.8468842,18.04,40,3.95,301,1766499066
245766747,Muradnagar,28.7733808,77.5033582,19.41,37,3.65,305,1766499066
245767001,Modinagar,28.8320713,77.5770873,18.38,39,3.79,305,1766499066
245767111,Sahwa,28.8753793,74.8477507,19.4,25,4.4,307,1766499066
245767231,Sitarganj,28.9277351,79.7028923,16.03,49,1.76,317,1766499066
245767308,Sonipat,28.9953758,77.0233627,18.01,38,3.71,301,1766498991
245767314,Meham,28.9674025,76.2953562,17.82,35,3.86,295,1766499066
245767462,Pantnagar,29.028405,79.4832094,16.9,46,3.22,303,1766499066
245767563,Kanth,29.0594576,78.6290448,18.47,38,4.65,292,1766499066
245767601,Mawana,29.099061,77.9208609,18.5,39,3.75,304,1766499066
245767615,Bhadra,29.1012943,75.1675355,19.22,27,4.36,307,1766499066
245767658,Sahaspur,29.1211913,78.6208906,18.5,38,4.73,292,1766499066
245767678,Gohana,29.1372166,76.7045205,17.84,37,3.71,299,1766498811
245767747,Nohar,29.1841366,74.7691392,19.24,25,4.57,313,1766499066
245767869,Rawatsar,29.2631,74.4016,18.91,23,4.04,315,1766499066
245767929,Miranpur,29.2904494,77.9477257,17.78,43,3.86,302,1766499066
245767996,Pephana,29.3394075,74.8985863,18.65,27,4.28,307,1766499066
245768111,Panipat,29.3912753,76.9771675,17.44,43,3.48,309,1766499066
245768140,Rāmnagar,29.394835,79.126934,15.57,51,1.83,16,1766499066
245768143,Kairana,29.394447,77.2052786,17.45,45,3.49,311,1766499066
245768228,Ellenabad,29.4521412,74.6634653,18.32,27,4.0,305,1766499066
245768264,Pilibanga,29.4916223,74.0790249,17.77,24,3.94,317,1766499066
245768267,Muzaffarnagar,29.4662369,77.6961699,17.58,47,3.62,301,1766499066
245768304,Afzalgarh,29.3930355,78.674504,17.44,45,4.3,301,1766499066
245768333,Raisinghnagar,29.535814,73.4459111,17.75,24,3.82,324,1766498960
245768365,Asandh,29.5212674,76.603457,17.28,40,3.38,306,1766499066
245768393,Sirsa,29.5372849,75.0377649,17.66,29,3.92,295,1766499066
245768503,Thana Bhawan,29.5869304,77.4169206,17.39,48,3.46,303,1766499066
245768506,Padampur,29.7093806,73.62449,16.94,26,3.7,321,1766499066
245768521,Gajsinghpur,29.6576658,73.4404763,17.4,25,3.73,324,1766499066
245768522,Almora,29.601699,79.6632635,10.06,55,1.57,265,1766499066
245768598,Pithoragarh,29.585871,80.215167,5.64,61,0.43,220,1766499066
245768708,Deoband,29.6934924,77.6779885,17.51,49,3.66,292,1766499066
245768718,Nisang,29.693166,76.7513556,17.23,46,3.48,314,1766499066
245768759,Nanauta,29.7129613,77.4175857,17.36,49,3.47,297,1766498775
245768836,Sangariya,29.7914438,74.4643995,17.38,26,3.8,301,1766499066
245768843,Pundri,29.7607616,76.5590514,17.1,46,3.35,316,1766499066
245768857,Gangoh,29.780632,77.2629435,17.38,49,3.49,298,1766499066
245768866,Jakhal,29.8019302,75.8223255,17.08,37,3.34,308,1766499066
245768875,Karanpur,29.8430883,73.4503328,17.15,26,3.69,320,1766499066
245768966,Bāgeshwar,29.837601,79.771398,13.61,42,2.02,307,1766499066
245769059,Baijnāth,29.9086073,79.6150451,11.94,44,2.34,340,1766499066
245769169,Kurukshetra,29.9693747,76.8482787,17.3,50,3.68,305,1766499066
245769315,Munsyari,30.06546,80.23453,6.34,24,4.72,20,1766499066
245769418,Yamunanagar,30.1231349,77.286329,17.04,53,4.27,287,1766499066
245769511,Jagadhari,30.1689,77.3019,16.95,53,4.31,286,1766499066
245769705,Karnaprayag,30.259647,79.2170691,12.06,38,0.91,143,1766499066
245769841,Nandaprayāg,30.33188,79.31992,11.0,30,1.67,76,1766499066
245770131,New Tehri,30.37445,78.43277,9.17,60,1.8,337,1766499066
245770185,Nathana,30.3159007,75.093077,16.96,33,3.61,316,1766499066
245770206,Mussoorie,30.4569012,78.0782906,5.53,61,2.56,53,1766499066
245770211,Jaito,30.4485444,74.8892204,16.79,34,3.35,313,1766499066
245770273,Sri Muktsar Sahib,30.4692,74.5182,16.67,31,3.35,305,1766499066
245770418,Nahan,30.5601803,77.2923596,14.69,55,2.43,346,1766499066
245770450,Kot Kapura,30.5791768,74.8210744,16.48,36,3.14,310,1766499066
245770486,Jalalabad,30.6065977,74.2581087,16.92,29,3.46,300,1766499066
245770535,Raikot,30.6496526,75.5993128,16.35,46,3.6,318,1766499066
245770582,Faridkot,30.6729772,74.7517033,16.35,37,3.03,308,1766498850
245770782,Kalka,30.8380036,76.9395047,12.89,60,2.45,29,1766499066
245770850,Samrala,30.8368764,76.1913755,16.33,52,3.8,299,1766499066
245771001,Rajgarh,30.84961,77.29569,7.55,55,2.56,32,1766499066
245771041,Chaupal,30.9491214,77.591071,5.4,60,1.54,354,1766499066
245771128,Sabathu,30.9756052,76.9898045,12.26,62,2.01,47,1766499066
245771251,Makhu,31.1027381,74.9904064,15.77,42,2.85,295,1766499066
245771265,Theog,31.1198924,77.358982,4.36,59,1.03,69,1766499066
245771915,Ghumarwin,31.4421256,76.7075073,13.49,54,1.69,38,1766498503
245771985,Tarn Taran Sahib,31.4555254,74.9269621,15.58,44,2.85,286,1766498986
245772062,Barsar,31.5273595,76.464296,12.37,56,1.92,16,1766499067
245772064,Hoshiarpur,31.5328523,75.9025485,15.71,55,3.23,322,1766498862
245772397,Amritsar,31.6356659,74.8787496,14.95,77,2.57,230,1766499067
245772471,Amb,31.6852327,76.1175499,14.19,59,2.72,334,1766499067
245772675,Batala,31.8193025,75.1999941,15.85,47,2.99,289,1766499067
245772743,Dehra Gopipur,31.8787244,76.2258111,15.04,60,1.94,329,1766499067
245772744,Nadaun,31.7819445,76.3434752,14.65,62,1.93,344,1766499067
245772781,Kahnuwan,31.9076836,75.4501301,16.0,49,3.15,290,1766499067
245772868,Dhariwal,31.952066,75.3217361,16.1,48,3.14,289,1766499067
245773022,Manali,32.2454608,77.1872926,-0.05,38,5.63,13,1766499067
245773039,Kangra,32.1031646,76.2723559,13.87,52,2.28,19,1766499067
245773086,Dharamshala,32.2143039,76.3196717,8.83,52,2.95,38,1766499067
245773092,Kaza,32.2243837,78.0722634,-5.45,45,3.31,273,1766499067
245773102,Pathankot,32.2692452,75.6528858,15.47,51,1.82,334,1766499067
245773120,Nurpur,32.2997393,75.8839627,14.42,52,1.73,41,1766499067
245773310,Samba,32.5622412,75.1165585,15.73,47,1.96,337,1766499067
245773312,Dalhousie,32.5360472,75.9797487,7.3,53,2.61,62,1766499067
245773671,Bhaderwah,32.9783699,75.7185638,5.14,54,1.79,155,1766499067
245773744,Reasi,33.0791771,74.8362947,15.67,48,2.62,50,1766499067
245773788,Nowshera,33.1575063,74.2403875,13.98,47,2.35,328,1766499067
245773899,Kishtwar,33.3107908,75.7694213,8.1,43,1.84,39,1766499067
245773924,Rajouri,33.3772495,74.3132332,12.46,46,1.44,25,1766499067
245773925,Padum,33.4691405,76.8781759,-11.42,63,3.77,200,1766499067
245774078,Kulgam,33.6446899,75.0188432,5.8,67,1.43,253,1766499067
245774323,Tral,33.926549,75.1140382,7.11,54,1.48,67,1766499067
245774328,Kakapora,33.9479845,74.9275781,8.25,62,0.97,210,1766499067
245774418,Badgam,34.0154721,74.7220085,7.58,58,1.32,222,1766499067
245774455,Tangmarg,34.0582559,74.4227543,3.71,72,1.2,179,1766499067
245774476,Uri,34.0878536,74.0305568,9.29,74,2.78,45,1766498924
245774579,Leh,34.1642029,77.5848133,-9.0,55,0.31,295,1766499067
245774767,Ganderbal,34.2163108,74.7695535,8.31,56,1.16,69,1766499067
245774770,Sopore,34.2869124,74.4625673,8.04,56,0.85,245,1766499067
245774950,Handwara,34.3993139,74.2827396,7.19,59,1.77,294,1766499067
245774959,Bandipora,34.4232433,74.635965,7.06,67,2.53,50,1766499067
245775021,Kargil,34.5593048,76.1255767,-1.0,42,1.82,259,1766499067
245845400,Ahmedgarh,30.6772118,75.8258147,16.29,49,3.69,313,1766499067
247229197,Avinashi,11.1907212,77.266879,22.01,58,1.87,113,1766499067
249984401,Mettupalayam,11.3059363,76.9356545,21.29,71,1.69,305,1766499067
256196848,Tambaram,12.9245279,80.1150525,25.05,77,3.6,50,1766498961
256777854,Kanchipuram,12.836393,79.7053304,21.36,72,4.93,40,1766499067
256778069,Walajapet,12.9254734,79.3637892,20.84,71,3.39,54,1766499067
259186488,Kakching,24.4974827,93.9835543,12.81,88,1.12,208,1766499067
263014503,Ranipet,12.9292452,79.3321712,20.8,71,3.08,55,1766499067
263014528,Arcot,12.9078949,79.320393,20.8,71,3.08,55,1766499067
263014723,Gudiyatham,12.9485676,78.8705336,20.21,70,1.89,59,1766499067
263014752,Pernampattu,12.9366728,78.7187469,19.72,70,2.19,47,1766499067
263014753,Pallikondai,12.905489,78.940936,20.23,71,1.87,70,1766499067
263014886,Ambur,12.7874171,78.7188211,19.95,68,1.89,58,1766499067
263014950,Bargur,12.5425826,78.3567173,20.12,59,2.27,48,1766499067
273658993,Srinagar,34.0747444,74.8204443,8.34,57,0.24,158,1766499059
277485901,Ichalkaranji,16.6959348,74.4555755,21.26,28,3.75,59,1766499067
280902307,Ettumanoor,9.6705152,76.557804,22.02,85,1.17,75,1766499067
281358588,Kayamkulam,9.1723603,76.500061,24.84,71,0.65,301,1766499067
281358701,Karunagapally,9.0551448,76.5354179,25.66,64,0.66,287,1766499067
281368071,Adoor,9.1529656,76.7355742,21.93,79,0.67,99,1766499067
282403100,Coonoor,11.3459447,76.7965283,11.11,85,1.05,305,1766499067
282777706,Devanahalli,13.2483502,77.7134377,20.08,60,3.09,70,1766499067
287241659,Tabo,32.0939595,78.3836693,-6.93,39,1.72,238,1766499067
287468687,Kullu,31.9578974,77.1089232,4.08,34,3.47,23,1766499067
287687798,Varanasi,25.3356491,83.0076292,16.63,47,2.63,268,1766499067
288863522,Chintamani,13.3986587,78.0533058,17.75,66,2.72,81,1766498672
290180981,Kannur,11.8763836,75.3737973,23.46,69,1.69,327,1766499067
290181532,Mahé,11.7021978,75.5364701,24.08,74,2.16,331,1766499067
290481241,Gelling,29.1345196,94.9776827,7.58,73,2.08,325,1766499067
290885849,Gudalur,11.4992417,76.4923903,17.67,77,1.78,120,1766499067
293673885,Sri Vijaya Puram,11.6645348,92.7390448,28.68,54,2.06,70,1766499067
294073627,Kundrathur,12.9957704,80.0973114,25.21,77,3.6,50,1766499067
294073748,Thirumazhisai,13.0540139,80.0607568,25.31,77,3.6,50,1766499067
294521062,Perur,10.976406,76.9141784,27.87,36,1.54,10,1766499067
296300688,Tanakpur,29.0740524,80.1096011,15.46,56,2.54,14,1766499067
297473137,Kelambakkam,12.7871437,80.219987,25.16,79,4.92,20,1766499067
297681854,Kottayam,9.591564,76.5221599,22.45,84,1.0,76,1766499030
299299684,Baramulla,34.2086903,74.343498,7.15,64,1.57,234,1766499067
299343470,Basohli,32.4985409,75.8179027,14.59,51,2.29,48,1766499067
299343472,Chamba,32.5565043,76.1249971,13.35,57,2.58,83,1766499067
299448214,Dibrugarh,27.4844597,94.9019447,17.11,59,2.08,12,1766499067
299448217,Chabua,27.4826767,95.1730318,16.57,63,1.39,29,1766499067
299449590,Champawat,29.3372715,80.0920862,7.02,58,1.5,307,1766499067
299531301,Dehradun,30.3255646,78.0436813,14.29,59,2.27,49,1766499055
299531768,Ukhimath,30.5139518,79.094756,11.21,29,3.62,8,1766499067
299539934,Paonta Sahib,30.4384439,77.6211774,15.83,56,1.77,36,1766499067
299544269,Chakrata,30.7013248,77.8703356,4.75,67,1.77,23,1766499067
299636581,Rekong Peo,31.5421419,78.2708218,-1.21,46,2.02,135,1766499067
299642899,Bilaspur,31.3380959,76.7611631,14.77,56,1.51,36,1766499067
299754270,Drass,34.4292702,75.750761,-14.39,83,2.25,220,1766499067
302559648,Nalagarh,31.042466,76.7176443,15.87,57,1.91,22,1766499067
302560565,Naraingarh,30.4723882,77.1242678,16.18,56,3.73,313,1766499067
302560567,Rajpura,30.4776857,76.5937658,16.73,54,3.88,306,1766499067
302568211,Sirhind,30.625015,76.3853971,16.6,53,3.86,304,1766499067
302568214,Mandi Gobindgarh,30.6518301,76.2998708,16.53,52,3.9,303,1766499067
302574537,Nawanshahr,31.1256744,76.1159294,16.18,55,3.76,307,1766499067
302574539,Garhshankar,31.2154716,76.1426888,16.12,56,3.78,314,1766499067
302575505,Sultanpur Lodhi,31.2144692,75.19477,15.84,46,3.03,292,1766499067
302575508,Kartarpur,31.4397157,75.4989077,16.06,48,3.19,293,1766499067
303055229,Kundah,11.2809911,76.6498924,10.67,86,1.2,19,1766499067
303959279,Ramanattukara,11.1780876,75.8656196,25.55,73,1.03,320,1766498791
304000992,Koyilandy,11.4383564,75.696891,23.34,77,2.24,338,1766499067
304001654,Vadakara,11.5985451,75.5897432,24.14,75,2.38,332,1766499067
304002887,Thalassery,11.7490639,75.4931578,23.56,74,1.94,330,1766499067
306117874,Vandalur,12.8921486,80.0829603,25.03,77,3.6,50,1766499067
308873521,Thiruporur,12.7258558,80.189518,25.08,69,4.75,20,1766499067
311934434,Radaur,30.0309855,77.1518216,17.16,52,3.82,292,1766499067
311937677,Indri,29.8789408,77.0520633,17.34,50,3.63,300,1766499067
311937746,Gharaunda,29.5361921,76.9697923,17.36,46,3.55,312,1766498776
311937747,Samalkha,29.2377095,77.0093811,17.57,41,3.51,305,1766499067
311937751,Gannaur,29.133324,77.0176378,17.58,40,3.63,303,1766499067
312851862,Puttur,13.4381418,79.5522138,24.71,82,2.35,28,1766499067
313178025,Kanakapura,12.5450268,77.4199095,19.68,57,3.47,93,1766499067
313211347,Gubbi,13.3095743,76.9400698,20.19,43,3.84,44,1766499067
313214900,Tiptur,13.258575,76.4737675,19.86,41,3.64,42,1766499067
313218498,Biruru,13.5988956,75.9734401,19.48,47,2.39,41,1766499067
313255437,Noida,28.5706333,77.3272147,16.18,30,3.34,298,1766498943
313267749,Bidadi,12.7988507,77.3869947,22.41,55,3.83,91,1766499067
313274269,Pennagaram,12.1331737,77.8992272,20.32,62,1.83,57,1766499067
314626472,Erode,11.3306483,77.7276519,23.51,53,1.33,155,1766499063
315137869,Auroville,12.0073927,79.8099471,23.78,68,5.69,33,1766499067
315734346,Jaipur,26.9154576,75.8189817,21.6,43,2.06,330,1766498966
316298251,Jhusi,25.4281109,81.9137525,17.75,47,2.79,270,1766499067
316416994,Delhi,28.6328027,77.2197713,16.07,77,2.06,260,1766499067
316417040,Shimla,31.1041526,77.1709729,6.09,59,1.52,46,1766498916
316417206,Vidisha,23.916667,78.0,18.72,45,1.43,26,1766499067
316419766,Achrol,27.1332143,75.9566333,17.65,36,3.09,335,1766499048
319536922,Podanur,10.9585609,76.988307,27.95,36,1.54,10,1766499067
322481124,Pazhaverkadu,13.4176606,80.3166702,24.29,68,5.75,27,1766499067
327726276,Beas,31.5198016,75.2879683,15.69,47,3.14,292,1766499067
331119291,Kunzer,34.0829324,74.5002436,6.31,65,1.62,203,1766499067
331119302,Magam,34.0932933,74.5916244,7.46,61,1.59,211,1766499067
332371238,Gingee,12.2544154,79.4157756,21.86,67,4.08,43,1766499067
334644561,Balaramapuram,8.4247979,77.0457835,27.54,74,1.54,270,1766499067
334644583,Marthandam,8.3065018,77.2223116,23.31,77,1.21,332,1766499067
335020300,Cherthala,9.686177,76.3426114,25.8,73,3.78,299,1766499067
335866163,Renigunta,13.6384508,79.5105191,24.97,73,2.57,70,1766499067
335868152,Tirupati,13.6316368,79.4231711,24.7,73,2.57,70,1766499067
335877330,Tirumala,13.6795235,79.3497522,19.94,86,2.01,64,1766499067
335882164,Sri Kalahasti,13.7518033,79.7002288,25.15,82,1.85,58,1766499067
335885603,Tiruvallur,13.1394221,79.9070839,25.4,79,3.37,27,1766499068
335886192,Tiruttani,13.1769705,79.6127625,21.02,77,3.19,44,1766499068
339279350,Howrah,22.5736296,88.3251045,17.97,88,0.0,0,1766499045
339884241,Rameswaram,9.2844657,79.3125553,25.4,78,8.35,41,1766499068
340748436,Hassan,13.0070817,76.0992703,19.35,42,3.09,36,1766498794
342097621,Gangtok,27.329046,88.6122673,9.93,91,1.38,66,1766498808
342097673,Bomdila,27.264445,92.4206519,3.88,75,0.6,279,1766499068
342097760,Tawang,27.5879186,91.863733,1.0,83,0.29,8,1766498611
342097944,Senge,27.45621,92.11212,-2.04,100,0.71,6,1766499068
342097975,Zemithang,27.7106891,91.730053,9.8,82,0.3,310,1766499068
342098150,Dirang,27.36008,92.24121,8.49,96,0.22,183,1766499068
342098270,Thingbu,27.6615349,92.0987879,-3.39,86,2.06,15,1766499068
342098314,Pakyong,27.2436107,88.5984989,11.78,90,1.51,40,1766499068
342098339,Singtam,27.2319975,88.4970841,13.49,89,1.45,15,1766499068
342098351,Ravangla,27.3051271,88.3644723,4.08,84,1.3,323,1766499068
342098412,Bagdogra,26.6988847,88.3200303,17.13,65,2.19,326,1766499068
342098659,Rongli,27.20352,88.70087,13.94,86,1.68,30,1766499068
342098800,Lachen,27.7306136,88.5495009,-0.56,55,4.21,335,1766499068
342098863,Kaying,28.41339,94.67881,12.24,74,2.54,313,1766499068
342098982,Naharlagun,27.103045,93.6923923,15.02,71,2.2,331,1766499068
342099543,Bishwanath Charaili,26.7283548,93.1495466,17.17,67,0.92,63,1766499068
342099777,Mechuka,28.5987453,94.1335827,8.63,83,0.94,109,1766499068
342099988,Kharupetia,26.5174808,92.1469174,19.72,51,1.25,292,1766499068
342100005,Dalgoan,26.556165,92.2003464,19.65,51,1.21,298,1766499068
342100221,Sipajhar,26.3974,91.89652,19.7,54,1.61,261,1766499068
342100483,Dergaon,26.71463,93.97019,19.08,57,1.92,59,1766499045
342101301,Didihat,29.80179,80.25238,6.89,34,1.64,19,1766499068
342101342,Gangolihāt,29.657291,80.039984,6.56,45,0.92,270,1766499068
342102080,Thal,29.8271976,80.1391626,11.52,31,1.88,16,1766499068
342102108,Berināg,29.7766204,80.0531299,7.52,36,1.26,346,1766499068
342103478,Dhārchula,29.8491135,80.5414711,6.45,24,3.65,29,1766498870
342104453,Gyalshing,27.29004,88.2573,8.21,83,1.55,309,1766499068
342104576,Badrinath,30.7423302,79.4930256,-8.56,61,6.28,349,1766499068
342104586,Rānikhet,29.64374,79.4281214,7.38,58,1.05,45,1766499068
342104598,Haldwani,29.2144809,79.5279012,16.4,45,2.74,9,1766499068
342104626,Kapkot,29.9478464,79.9013865,14.03,28,2.79,355,1766499068
342104645,Rudrapur,28.9707183,79.3972845,17.44,43,4.1,292,1766499068
342105605,Lalkuan,29.0678634,79.5166143,16.69,46,2.64,322,1766499068
342105699,Joshīmath,30.5555752,79.5612607,4.64,32,4.25,21,1766499068
342105722,Kathgodam,29.2662305,79.5437432,15.34,45,2.75,16,1766499068
342105819,Bhowali,29.3834967,79.5188391,8.33,49,2.0,26,1766499068
342107367,Nainital,29.3905295,79.460869,3.06,50,2.22,36,1766499068
342107378,Rudraprayag,30.28656,78.98072,13.82,42,0.16,142,1766499068
342107387,Pokhri,30.34424,79.19907,9.81,34,0.61,94,1766499068
342107407,Gopeshwar,30.40878,79.31855,11.53,25,2.7,38,1766499068
342107816,Gadarpur,29.04236,79.24851,17.51,42,3.68,297,1766498886
342107846,Gairsain,30.0546199,79.2899889,8.37,36,1.64,341,1766499068
342108175,Gauchar,30.2889024,79.1570761,13.45,38,0.75,152,1766499068
342108821,Narayn Bagar,30.14511,79.37348,8.19,37,0.65,34,1766499068
342108862,Betalghat,29.55597,79.34189,11.28,54,1.9,53,1766499068
342109138,Ghāt,30.2584832,79.4481189,11.34,31,2.53,76,1766499068
342109217,Kaladhungi,29.2846338,79.3472645,16.17,48,2.14,14,1766499068
342110021,Gangotri,30.9943684,78.9398699,-2.3,50,4.56,104,1766499068
342110029,Lansdowne,29.8378415,78.681756,11.05,57,2.41,5,1766499068
342110039,Pauri,30.1479882,78.7759518,7.19,60,0.76,359,1766499068
342110107,Srinagar,30.2238064,78.7879045,13.53,54,0.89,9,1766499068
342111058,Satpuli,29.917273,78.710435,10.84,61,1.62,5,1766499068
342112639,Jaspur,29.2787153,78.8277072,17.45,44,4.26,299,1766499068
342112683,Jaiharīkhāl,29.8611769,78.681527,10.18,59,2.14,5,1766499068
342112752,Uttarkashi,30.7291049,78.4403495,7.88,39,2.43,36,1766499068
342113842,Gangori,30.7571971,78.4537454,10.74,36,2.76,40,1766499068
342114073,Kotdwar,29.7459823,78.5201358,16.89,51,3.21,346,1766499068
342114133,Chinyalisaur,30.5744141,78.3276556,12.09,58,1.21,355,1766499068
342114339,Devprayag,30.1461443,78.5985849,11.96,64,1.14,304,1766499068
342115051,Keylang,32.5713398,77.0345199,-11.11,45,3.16,55,1766499068
342115116,Tiuni,30.9431215,77.8484843,7.37,58,1.97,345,1766499068
342115402,Sawra,31.1233868,77.75162,6.5,53,0.88,34,1766499068
342115529,Nagal,29.8389229,77.6324548,17.29,50,3.77,287,1766499068
342115618,Barla,29.6107753,77.7917988,17.61,48,3.74,294,1766499068
342116240,Bhuntar,31.8875195,77.1436237,11.9,39,2.42,47,1766499068
342116421,Nerchowk,31.6075891,76.9142821,11.97,53,2.0,86,1766499068
342116522,Kandaghat,30.9670035,77.1074554,9.56,61,2.19,46,1766499068
342116536,Chhutmalpur,30.0363016,77.7518248,16.54,54,2.88,294,1766499068
342117043,Chandigarh,30.7334421,76.7797143,15.76,57,3.34,336,1766499068
342117074,Kathua,32.3765524,75.5243044,15.55,50,2.12,335,1766498664
342117599,Chandgad,15.9458037,74.1820815,19.62,44,2.44,66,1766499068
342117823,Khanapur,15.639879,74.5088917,21.61,43,2.82,67,1766499068
342117887,Bicholim,15.5902655,73.9457096,21.56,71,1.51,0,1766499068
342118036,Wagholi,18.5806299,73.9833099,22.26,34,2.8,74,1766499068
342118125,Lakhanpur,32.3822,75.59418,14.91,50,1.7,349,1766499068
342118255,Jwalamukhi,31.874083,76.320936,12.82,59,1.69,349,1766499068
342118380,Chauntra,32.0145466,76.735512,10.17,44,2.85,38,1766499068
342118390,Joginder Nagar,31.9901487,76.7929928,9.97,43,2.77,33,1766499068
342118490,Baijnath,32.0497564,76.6449703,12.07,46,2.84,38,1766499068
342119126,Qazigund,33.5934693,75.1658235,5.78,72,0.79,162,1766499068
342119133,Banihal,33.4378883,75.1954855,5.77,74,0.84,25,1766499068
342119164,Bijbehara,33.7935169,75.1061554,7.32,56,0.7,124,1766499068
342119228,Awantipora,33.91891,75.01465,7.83,62,0.63,175,1766499068
342119234,Pampore,34.01092,74.91303,8.35,61,0.43,147,1766499068
342119316,Sankoo,34.2896796,75.96222,-6.77,57,2.64,178,1766499068
342119405,Dinanagar,32.1338479,75.4719883,16.32,48,3.05,303,1766499068
342119456,Mahad,18.080753,73.42438,22.31,36,1.43,74,1766499068
342119461,Rajapur,16.6533199,73.5148504,21.48,55,2.56,360,1766499068
342119660,Devgad,16.3770393,73.3796243,25.1,63,5.04,339,1766499068
342119666,Vijaydurg,16.5508096,73.3365435,25.52,62,5.97,337,1766499068
342119762,Malvan,16.06064,73.4669499,25.14,66,3.92,337,1766499068
342119886,Pen,18.736151,73.0949798,22.68,57,1.54,276,1766499068
343333679,Belagavi,15.8572666,74.5069343,21.07,56,3.09,100,1766499063
343369473,Karad,17.2852127,74.1822147,20.98,30,2.73,54,1766499068
343719430,Perumbavoor,10.1147548,76.4778152,27.87,54,2.06,260,1766499068
