city_x,PM25 AQ,PM25 AQI Category,PM10 AQ,PM10 AQI Category,CO AQ,CO AQI Category,NO2 AQ,NO2 AQI Category,SO2 AQ,SO2 AQI Category,O3 AQ,O3 AQI Category,AQI,location_id,temperature,humidity,wind_speed,wind_deg,timestamp,hour,day_of_week,month,season,city_y,Road_Count,Industrial_Count,Farmland_Count,Landfill_Count,Dump_Site_Count,Distance_to_Nearest_Road_m,Distance_to_Nearest_Industrial_m,Distance_to_Nearest_Farmland_m,Distance_to_Nearest_Landfill_m,Distance_to_Nearest_Dump_m,latitude,longitude
Mumbai,0.24390654599031786,Moderate,0.2206354873259551,Moderate,0.11840159216405532,Very Poor,0.015382808830436821,Good,0.1048271291284657,Good,0.8281142226514002,Moderate,5,16173235,0.9846761086603204,0.2564102564102564,0.3059523809523809,0.9166666666666667,1970-01-01 00:00:01.766499058,0,3,1,1,Mumbai,938.0,30.0,2.0,0.0,0.0,23.6,51.03,1878.86,894.22,340.4,19.054999,72.8692035
New Delhi,0.347063776047148,Moderate,0.34975008925383794,Poor,0.29159235917347953,Severe,0.23414748708313754,Good,0.040097205346294046,Good,0.28100427645192444,Satisfactory,5,16173236,0.7072208033433944,0.7051282051282051,0.24523809523809523,0.7222222222222222,1970-01-01 00:00:01.766499002,0,3,1,1,New Delhi,1205.0,0.0,0.0,0.0,3.0,1.5,916.48,814.3299999999999,894.22,2068.8,28.6138954,77.2090057
Pune,0.2346453378236161,Moderate,0.2098536237058194,Moderate,0.11984156406704258,Very Poor,0.03511038046031,Good,0.048713133767811764,Good,0.6502965926334666,Moderate,5,16174445,0.8553517529602972,0.15384615384615385,0.20119047619047617,0.29444444444444445,1970-01-01 00:00:01.766498794,0,3,1,1,Pune,1899.0,5.0,2.0,0.0,1.0,24.72,1355.7,1793.35,894.22,563.07,18.5213738,73.8545071
Shrirampur,0.08048831824878973,Good,0.07768654052124242,Good,0.09507326686308559,Very Poor,0.13903240958196333,Good,0.08527559924886778,Good,0.32611394675127603,Satisfactory,3,30609910,0.8077548177385652,0.16666666666666663,0.20833333333333331,0.18333333333333335,1970-01-01 00:00:01.766499058,0,3,1,1,Shrirampur,324.0,3.0,11.0,0.0,0.0,0.0,1045.9,814.5,894.22,340.4,19.6199708,74.6546944
Vaduj,0.2739633761313408,Moderate,0.24807211710103536,Moderate,0.15730815008487636,Severe,0.11272898074213245,Good,0.04926543687175521,Good,0.44709615119326807,Moderate,5,30612110,0.8251683306245646,0.08974358974358976,0.2714285714285714,0.18611111111111112,1970-01-01 00:00:01.766499058,0,3,1,1,Vaduj,112.0,0.0,0.0,0.0,0.0,0.76,916.48,814.3299999999999,894.22,340.4,17.5950822,74.4504661
Pushkar,0.1630183119343296,Satisfactory,0.22825776508389864,Moderate,0.09379719420108876,Very Poor,0.10016439643024892,Good,0.03965536286313929,Good,0.40272221455832996,Satisfactory,5,82799646,0.7606222428604598,0.14102564102564102,0.3333333333333333,0.9638888888888889,1970-01-01 00:00:01.766499058,0,3,1,1,Pushkar,414.0,1.0,218.0,0.0,0.0,7.49,437.1,7.49,894.22,340.4,26.4876472,74.5578484
Orchha,0.12700484108608714,Satisfactory,0.11940378436272764,Satisfactory,0.11470995687889016,Very Poor,0.14361202442461246,Good,0.02938252512979123,Good,0.1739090449257369,Good,4,82799649,0.772231251451126,0.3076923076923077,0.22499999999999998,0.011111111111111112,1970-01-01 00:00:01.766499058,0,3,1,1,Orchha,48.0,0.0,1.0,0.0,0.0,46.82,916.48,1195.32,894.22,340.4,25.3528706,78.6402465
Phillaur,0.17314249631656495,Satisfactory,0.18716529810781868,Moderate,0.24575130241361143,Severe,0.13010803193987783,Good,0.06274163260797526,Good,0.3789948038809951,Satisfactory,5,102751630,0.711167866264221,0.34615384615384615,0.43690476190476185,0.8250000000000001,1970-01-01 00:00:01.766499058,0,3,1,1,Phillaur,532.0,0.0,0.0,0.0,0.0,25.75,916.48,814.3299999999999,894.22,340.4,31.018294,75.7839116
Goraya,0.17314249631656495,Satisfactory,0.18716529810781868,Moderate,0.24575130241361143,Severe,0.13010803193987783,Good,0.06274163260797526,Good,0.3789948038809951,Satisfactory,5,103898968,0.7127931274669144,0.34615384615384615,0.42976190476190473,0.8194444444444445,1970-01-01 00:00:01.766498986,0,3,1,1,Goraya,482.0,0.0,0.0,0.0,0.0,7.54,916.48,814.3299999999999,894.22,340.4,31.1208324,75.7787046
Phagwara,0.16672279520101033,Satisfactory,0.1812923955730097,Moderate,0.2529355524770248,Severe,0.14631282292155937,Good,0.06086380205456754,Good,0.3546696096013244,Satisfactory,5,103907978,0.7130253076387276,0.34615384615384615,0.42142857142857143,0.8194444444444445,1970-01-01 00:00:01.766498804,0,3,1,1,Phagwara,335.0,5.0,0.0,0.0,0.0,102.43,415.93,814.3299999999999,894.22,340.4,31.2206734,75.7696463
Mohali,0.297937276362871,Moderate,0.2904319885755088,Moderate,0.33330471600554135,Severe,0.14654767496477214,Good,0.08582790235281122,Good,0.42667954200579394,Moderate,5,125904109,0.7042024611098212,0.4487179487179487,0.42976190476190473,0.9055555555555556,1970-01-01 00:00:01.766499058,0,3,1,1,Mohali,1677.0,4.0,0.0,0.0,0.0,16.95,867.79,814.3299999999999,894.22,340.4,30.7041168,76.7176885
Morinda,0.27722584719006527,Moderate,0.27388432702606214,Moderate,0.31771867865992853,Severe,0.15159699389384682,Good,0.09135093339224568,Good,0.429576493309422,Moderate,5,125905496,0.7116322266078478,0.4358974358974359,0.42738095238095236,0.8722222222222222,1970-01-01 00:00:01.766499058,0,3,1,1,Morinda,393.0,2.0,0.0,0.0,0.0,9.59,870.35,814.3299999999999,894.22,340.4,30.7908462,76.4984505
Kurali,0.26038728688697116,Moderate,0.25624776865405213,Moderate,0.312079764297282,Severe,0.13010803193987783,Good,0.08196178062520712,Good,0.4170690210143928,Moderate,5,125906063,0.7053633619688879,0.4487179487179487,0.40238095238095234,0.9027777777777778,1970-01-01 00:00:01.766499058,0,3,1,1,Kurali,661.0,1.0,0.0,0.0,0.0,44.11,1335.88,814.3299999999999,894.22,340.4,30.8314536,76.5784763
Rupnagar,0.26038728688697116,Moderate,0.25624776865405213,Moderate,0.312079764297282,Severe,0.13010803193987783,Good,0.08196178062520712,Good,0.4170690210143928,Moderate,5,125907877,0.7069886231715812,0.4487179487179487,0.3702380952380952,0.9194444444444445,1970-01-01 00:00:01.766499058,0,3,1,1,Rupnagar,579.0,0.0,0.0,0.0,0.0,88.56,916.48,814.3299999999999,894.22,340.4,30.9688367,76.526088
Moga,0.21875394653757105,Moderate,0.23761156729739383,Moderate,0.3239195332773994,Severe,0.1782527007984969,Good,0.04352148459074339,Good,0.34542695544213,Satisfactory,5,126094102,0.7067564429997679,0.26923076923076916,0.369047619047619,0.8583333333333334,1970-01-01 00:00:01.766499058,0,3,1,1,Moga,1819.0,1.0,0.0,0.0,0.0,28.55,1597.66,814.3299999999999,894.22,340.4,30.8223408,75.1730967
Pahalgam,0.07034308566617554,Good,0.08397001071046058,Satisfactory,0.21519189869465957,Severe,0.26514795678722397,Good,0.03744615044736551,Good,0.2317101209362211,Satisfactory,3,165089167,0.3361968887856977,0.2948717948717948,0.557142857142857,0.14444444444444446,1970-01-01 00:00:01.766499058,0,3,1,1,Pahalgam,4.0,0.0,4.0,0.0,0.0,343.9,916.48,343.9,894.22,340.4,34.0322048,75.3226479
Ambala,0.32109029677962536,Moderate,0.32013566583363084,Moderate,0.3210512965600671,Severe,0.1578205730389854,Good,0.09753672815641223,Good,0.46489170920126915,Moderate,5,176044062,0.7244021360575806,0.41025641025641024,0.4726190476190476,0.8416666666666667,1970-01-01 00:00:01.766499058,0,3,1,1,Ambala,2095.0,3.0,0.0,0.0,0.0,34.33,1264.28,814.3299999999999,894.22,340.4,30.3843674,76.770421
Doraha,0.2383287728899179,Moderate,0.24393073902177795,Moderate,0.2908470078632612,Severe,0.15652888680131513,Good,0.0850546780072904,Good,0.4189543385294524,Moderate,5,176047379,0.7130253076387276,0.3717948717948718,0.44999999999999996,0.8388888888888889,1970-01-01 00:00:01.766499058,0,3,1,1,Doraha,554.0,3.0,0.0,0.0,0.0,11.35,1189.58,814.3299999999999,894.22,340.4,30.7988727,76.0372906
Sriperumbudur,0.09227531046095559,Good,0.09528739735808642,Satisfactory,0.0895319115724571,Very Poor,0.14431658055425078,Good,0.09808903126035569,Good,0.41674713753621195,Moderate,3,243327628,0.9196656605525888,0.7435897435897435,0.41428571428571426,0.07777777777777778,1970-01-01 00:00:01.766499058,0,3,1,1,Sriperumbudur,460.0,3.0,1.0,1.0,0.0,35.59,1702.44,637.33,2266.16,340.4,12.9666144,79.9458077
Poonamallee,0.09406440749315935,Good,0.09591217422349163,Satisfactory,0.08520419113773389,Very Poor,0.13022545796148424,Good,0.08626974483596597,Good,0.43012829355773213,Moderate,3,243327788,0.9231483631297888,0.7051282051282051,0.42857142857142855,0.1388888888888889,1970-01-01 00:00:01.766499058,0,3,1,1,Poonamallee,1768.0,14.0,3.0,0.0,0.0,51.56,572.24,566.74,894.22,340.4,13.0492031,80.1010677
Sahnewal,0.20368343506630185,Moderate,0.2137272402713317,Moderate,0.268275740961152,Severe,0.13997181775481443,Good,0.07113663978791561,Good,0.3982158458637973,Satisfactory,5,243416825,0.7123287671232876,0.3589743589743589,0.4464285714285714,0.8333333333333334,1970-01-01 00:00:01.766499058,0,3,1,1,Sahnewal,764.0,5.0,0.0,0.0,0.0,11.0,784.33,814.3299999999999,894.22,340.4,30.8402061,75.983601
Vellore,0.0705114712692065,Good,0.07657979293109606,Good,0.08677294101578505,Very Poor,0.16592296852982616,Good,0.08461283552413564,Good,0.34023083643720975,Satisfactory,3,243713144,0.8075226375667518,0.641025641025641,0.23809523809523808,0.19166666666666668,1970-01-01 00:00:01.766499058,0,3,1,1,Vellore,1357.0,1.0,0.0,0.0,0.0,62.56,355.22,814.3299999999999,894.22,340.4,12.9071753,79.1309695
Jagraon,0.19793727636287098,Satisfactory,0.21395930024991078,Moderate,0.2792960137363173,Severe,0.15476749647721932,Good,0.05589307411907654,Good,0.37214328413114456,Satisfactory,5,243859333,0.7093104248897144,0.3076923076923077,0.4071428571428571,0.8583333333333334,1970-01-01 00:00:01.766499058,0,3,1,1,Jagraon,609.0,0.0,0.0,0.0,0.0,13.69,916.48,814.3299999999999,894.22,340.4,30.8041704,75.4753645
Gill,0.20368343506630185,Moderate,0.2137272402713317,Moderate,0.268275740961152,Severe,0.13997181775481443,Good,0.07113663978791561,Good,0.3982158458637973,Satisfactory,5,243869887,0.7107035059205944,0.34615384615384615,0.44047619047619047,0.8388888888888889,1970-01-01 00:00:01.766499058,0,3,1,1,Gill,1803.0,0.0,0.0,0.0,0.0,4.45,916.48,814.3299999999999,894.22,340.4,30.846374,75.8628312
Dehlon,0.22012207956219743,Moderate,0.23052481256694043,Moderate,0.27957308150084875,Severe,0.15629403475810236,Good,0.0732353915829007,Good,0.4054352324458546,Satisfactory,5,245133391,0.7116322266078478,0.34615384615384615,0.4380952380952381,0.8583333333333334,1970-01-01 00:00:01.766499058,0,3,1,1,Dehlon,300.0,1.0,0.0,0.0,0.0,2.71,1958.21,814.3299999999999,894.22,340.4,30.7431327,75.8505198
Nagercoil,0.04794780046306041,Good,0.05744377008211353,Good,0.024436596359095432,Moderate,0.01139032409581963,Good,0.03137081630398762,Good,0.44300363268496806,Moderate,3,245580128,0.8794984908288832,0.6666666666666666,0.21428571428571427,0.01388888888888889,1970-01-01 00:00:01.766499058,0,3,1,1,Nagercoil,1074.0,2.0,9.0,0.0,0.0,7.3,297.27,1075.01,894.22,340.4,8.1839904,77.4315437
Nanguneri,0.05299936855398865,Good,0.06199571581578009,Good,0.028900899494644,Moderate,0.01596993893846876,Good,0.03369048934055009,Good,0.4471881179013198,Moderate,3,245581303,0.8632458788019503,0.7307692307692307,0.24523809523809523,0.09444444444444444,1970-01-01 00:00:01.766499058,0,3,1,1,Nanguneri,66.0,1.0,0.0,0.0,0.0,59.93,2216.56,814.3299999999999,894.22,340.4,8.4892568,77.6596709
Thiruvananthapuram,0.12351083982319515,Satisfactory,0.11590503391645843,Satisfactory,0.05028584808101305,Poor,0.007632691404415216,Good,0.01955152987959792,Good,0.5261415367636915,Moderate,4,245581432,0.9828186672858138,0.6666666666666666,0.18333333333333332,0.75,1970-01-01 00:00:01.766498667,0,3,1,1,Thiruvananthapuram,2502.0,4.0,2.0,0.0,1.0,3.54,432.06,1793.39,894.22,2021.47,8.4882267,76.947551
Nazareth,0.04460113660282046,Good,0.055069617993573725,Good,0.027453122865895296,Moderate,0.01761390324095819,Good,0.03269634375345189,Good,0.4255299581551479,Moderate,3,245581609,0.9071279312746692,0.6538461538461539,0.530952380952381,0.16111111111111112,1970-01-01 00:00:01.766499058,0,3,1,1,Nazareth,104.0,0.0,0.0,0.0,0.0,100.17,916.48,814.3299999999999,894.22,340.4,8.5599258,77.9719457
Vikramasingapuram,0.09206482845716692,Good,0.09321670831845771,Satisfactory,0.04140797252736532,Moderate,0.013856270549553778,Good,0.030597591958466803,Good,0.49960914149078034,Moderate,3,245581822,0.8818202925470164,0.6538461538461539,0.1952380952380952,0.25833333333333336,1970-01-01 00:00:01.766499058,0,3,1,1,Vikramasingapuram,213.0,1.0,0.0,0.0,0.0,24.67,1426.02,814.3299999999999,894.22,340.4,8.7141792,77.3892867
Tirunelveli,0.06059776889075985,Good,0.0690824705462335,Good,0.03351739478254083,Moderate,0.021723813997181773,Good,0.03678338672263338,Good,0.45431553777532535,Moderate,3,245581857,0.8948223821685628,0.6666666666666666,0.3369047619047619,0.225,1970-01-01 00:00:01.766499045,0,3,1,1,Tirunelveli,657.0,1.0,0.0,0.0,0.0,8.74,882.42,814.3299999999999,894.22,340.4,8.7284271,77.7112925
Alwarkuruchi,0.09206482845716692,Good,0.09321670831845771,Satisfactory,0.04140797252736532,Moderate,0.013856270549553778,Good,0.030597591958466803,Good,0.49960914149078034,Moderate,3,245581905,0.8929649407940562,0.6282051282051282,0.21666666666666667,0.26944444444444443,1970-01-01 00:00:01.766499058,0,3,1,1,Alwarkuruchi,58.0,1.0,2.0,0.0,0.0,9.68,391.61,391.85,894.22,340.4,8.782604,77.3985651
Kollam,0.1541780677752052,Satisfactory,0.14041413780792578,Satisfactory,0.06294511326608261,Poor,0.005401596993893846,Good,0.018667844913288413,Good,0.5492711638386903,Moderate,5,245582090,0.9257023450197354,0.5512820512820512,0.060714285714285714,0.8388888888888889,1970-01-01 00:00:01.766499058,0,3,1,1,Kollam,1049.0,7.0,0.0,0.0,0.0,15.27,161.31,814.3299999999999,894.22,340.4,8.8870533,76.5906696
Ayoor,0.1454851610187329,Satisfactory,0.13239914316315604,Satisfactory,0.05877738970946908,Poor,0.005049318929074682,Good,0.017452778084612833,Good,0.5483514967581735,Moderate,4,245582136,0.828186672858138,0.7435897435897435,0.0488095238095238,0.10555555555555556,1970-01-01 00:00:01.766499058,0,3,1,1,Ayoor,46.0,0.0,5.0,0.0,0.0,19.9,916.48,1727.17,894.22,340.4,8.8978612,76.8601206
Kulathupuzha,0.12376341822774155,Satisfactory,0.11711888611210286,Satisfactory,0.05229556496458605,Poor,0.010333489901362142,Good,0.02452225781508892,Good,0.529774221731733,Moderate,4,245582143,0.8397956814488043,0.717948717948718,0.024999999999999998,0.125,1970-01-01 00:00:01.766499058,0,3,1,1,Kulathupuzha,61.0,0.0,1.0,0.0,0.0,61.31,916.48,782.86,894.22,340.4,8.9065347,77.0564917
Tenkasi,0.1020206272363713,Satisfactory,0.10183862906104965,Satisfactory,0.045809837856822314,Poor,0.015735086895255986,Good,0.031591737545565005,Good,0.5111969467052927,Moderate,4,245582256,0.8841420942651498,0.5897435897435898,0.1880952380952381,0.2111111111111111,1970-01-01 00:00:01.766498947,0,3,1,1,Tenkasi,336.0,0.0,13.0,0.0,0.0,25.78,916.48,187.76,894.22,340.4,8.9557896,77.3072559
Kottarakkara,0.13906545990317828,Satisfactory,0.1275437343805784,Satisfactory,0.058133499834149574,Poor,0.00575387505871301,Good,0.022423506020103835,Good,0.5402124430955993,Moderate,4,245582478,0.8356164383561644,0.7307692307692307,0.06547619047619048,0.19166666666666668,1970-01-01 00:00:01.766499058,0,3,1,1,Kottarakkara,241.0,0.0,21.0,0.0,0.0,3.87,916.48,117.99,894.22,340.4,9.0054869,76.7831987
Vilattikulam,0.05716691222900443,Good,0.06860049982149233,Good,0.07459366646504458,Poor,0.14067637388445275,Good,0.06252071136639788,Good,0.3285050811606199,Satisfactory,3,245582675,0.911307174367309,0.6025641025641025,0.5464285714285714,0.2,1970-01-01 00:00:01.766499058,0,3,1,1,Vilattikulam,33.0,0.0,0.0,0.0,0.0,0.0,916.48,814.3299999999999,894.22,340.4,9.130928,78.167316
Ettaiyapuram,0.06779625342033258,Good,0.0761692252766869,Good,0.0650328774072701,Poor,0.10216063879755752,Good,0.055451231635921784,Good,0.38616820710902655,Satisfactory,3,245582795,0.9075922916182958,0.5769230769230769,0.37261904761904757,0.19444444444444445,1970-01-01 00:00:01.766499058,0,3,1,1,Ettaiyapuram,59.0,1.0,0.0,0.0,0.0,49.33,1468.47,814.3299999999999,894.22,340.4,9.1485222,77.9971639
Sankarankovil,0.08905493580298884,Good,0.09130667618707607,Satisfactory,0.04555618426957522,Poor,0.023837482386096755,Good,0.04109135093339224,Good,0.503517726582977,Moderate,3,245582958,0.9150220571163222,0.47435897435897434,0.21547619047619046,0.04722222222222222,1970-01-01 00:00:01.766499058,0,3,1,1,Sankarankovil,582.0,0.0,0.0,0.0,0.0,0.0,916.48,814.3299999999999,894.22,340.4,9.170073,77.535369
Puliyangudi,0.10406230267312146,Satisfactory,0.10183862906104965,Satisfactory,0.04901758014477767,Poor,0.017731329262564578,Good,0.0345741743068596,Good,0.5148296316733343,Moderate,4,245583048,0.8785697701416298,0.5897435897435898,0.22023809523809523,0.022222222222222223,1970-01-01 00:00:01.766499058,0,3,1,1,Puliyangudi,205.0,0.0,0.0,0.0,0.0,10.87,916.48,814.3299999999999,894.22,340.4,9.1756002,77.3966381
Haripad,0.13395074721111344,Satisfactory,0.12395573009639416,Satisfactory,0.05772375173167352,Poor,0.006341005166744949,Good,0.027504694576383517,Good,0.5367636915436612,Moderate,4,245583686,0.900626886463896,0.6923076923076923,0.0869047619047619,0.8611111111111112,1970-01-01 00:00:01.766499058,0,3,1,1,Haripad,343.0,3.0,10.0,0.0,0.0,55.7,75.78,943.9,894.22,340.4,9.2844934,76.4562679
Mandapam,0.026857503683435067,Good,0.03272045697965013,Good,0.027312637802189225,Moderate,0.016909347111319865,Good,0.020324754225118744,Good,0.38028233779371867,Satisfactory,2,245583753,0.925470164847922,0.717948717948718,1.0,0.13611111111111113,1970-01-01 00:00:01.766499058,0,3,1,1,Mandapam,59.0,0.0,0.0,0.0,0.0,19.04,916.48,814.3299999999999,894.22,340.4,9.282701,79.1526713
Sattur,0.07945695643022523,Good,0.08655837200999644,Satisfactory,0.09245478137011959,Very Poor,0.16897604509159225,Good,0.06947973047608527,Good,0.3430358210327862,Satisfactory,3,245583914,0.9159507778035756,0.5128205128205128,0.4476190476190476,0.13333333333333333,1970-01-01 00:00:01.766499058,0,3,1,1,Sattur,302.0,0.0,1.0,0.0,0.0,5.68,916.48,1076.17,894.22,340.4,9.3516337,77.9211286
Rajapalayam,0.1065670385182067,Satisfactory,0.10083898607640131,Satisfactory,0.05805545257653509,Poor,0.02947393142320338,Good,0.04606207886888324,Good,0.5253598197452523,Moderate,4,245584040,0.886463895983283,0.5512820512820512,0.21904761904761905,0.9,1970-01-01 00:00:01.766499058,0,3,1,1,Rajapalayam,711.0,4.0,1.0,0.0,0.0,10.84,1531.85,1683.5,894.22,340.4,9.4456102,77.5542849
Devipattinam,0.03230898758156178,Good,0.03673687968582649,Good,0.03198376617041619,Moderate,0.0371066228276186,Good,0.030928973820832876,Good,0.37655768611762547,Satisfactory,2,245584065,0.9196656605525888,0.6923076923076923,0.7833333333333333,0.16944444444444445,1970-01-01 00:00:01.766499058,0,3,1,1,Devipattinam,75.0,0.0,0.0,0.0,0.0,29.53,916.48,814.3299999999999,894.22,340.4,9.4749165,78.8967566
Alappuzha,0.13009892654178068,Satisfactory,0.12159942877543736,Satisfactory,0.05754814540204094,Poor,0.007045561296383279,Good,0.03291726499502926,Good,0.5379592587483331,Moderate,4,245584105,0.934060831205015,0.641025641025641,0.37142857142857144,0.8194444444444445,1970-01-01 00:00:01.766499058,0,3,1,1,Alappuzha,1220.0,3.0,1.0,0.0,0.0,1.45,663.4,1641.13,894.22,340.4,9.4923271,76.3291487
Aruppukkottai,0.08335087350031574,Good,0.09500178507675833,Satisfactory,0.1479541862597803,Severe,0.3305542508219821,Good,0.10062962553849553,Good,0.1941877040511335,Satisfactory,3,245584138,0.912700255398189,0.5256410256410257,0.41666666666666663,0.14444444444444446,1970-01-01 00:00:01.766499058,0,3,1,1,Aruppukkottai,400.0,0.0,0.0,0.0,0.0,17.87,916.48,814.3299999999999,894.22,340.4,9.5073229,78.0958971
Virudhunagar,0.09109661123973901,Good,0.09694751874330598,Satisfactory,0.11920547891748454,Very Poor,0.23403006106153118,Good,0.08317684745388268,Good,0.3007311353290109,Satisfactory,3,245584469,0.9043417692129092,0.5384615384615384,0.4261904761904762,0.1388888888888889,1970-01-01 00:00:01.766499058,0,3,1,1,Virudhunagar,1067.0,2.0,1.0,0.0,0.0,17.57,1432.7,682.49,894.22,340.4,9.58224,77.9537
Thondi,0.031572300568301404,Good,0.03659407354516245,Good,0.030832569120602518,Moderate,0.027007984969469226,Good,0.028940682646636472,Good,0.38014438773164116,Satisfactory,2,245584800,0.9196656605525888,0.6666666666666666,0.7821428571428571,0.15,1970-01-01 00:00:01.766499058,0,3,1,1,Thondi,129.0,0.0,0.0,0.0,0.0,8.96,916.48,814.3299999999999,894.22,340.4,9.7422651,79.0175877
Painavu,0.16137655230477793,Satisfactory,0.15003570153516604,Satisfactory,0.08124329281379876,Poor,0.026773132926256455,Good,0.04959681873412128,Good,0.635581919345197,Moderate,5,245584837,0.7401903877408869,0.641025641025641,0.20238095238095236,0.23611111111111113,1970-01-01 00:00:01.766499058,0,3,1,1,Painavu,83.0,0.0,0.0,0.0,0.0,73.63,916.48,814.3299999999999,894.22,340.4,9.8540061,76.9446486
Usilampatti,0.08783414018101453,Good,0.09041413780792576,Satisfactory,0.08839632397416636,Very Poor,0.13433536871770782,Good,0.06605545123163592,Good,0.38860532487239624,Satisfactory,3,245585550,0.8662642210355236,0.5769230769230769,0.12738095238095237,0.22222222222222224,1970-01-01 00:00:01.766499058,0,3,1,1,Usilampatti,183.0,0.0,0.0,0.0,0.0,16.83,916.48,814.3299999999999,894.22,340.4,9.9648653,77.7898611
Muvattupuzha,0.15699852662597347,Satisfactory,0.14580506961799358,Satisfactory,0.07141714308013503,Poor,0.013503992484734616,Good,0.03777753230973157,Good,0.5891847151331218,Moderate,5,245585625,0.9807290457394939,0.7948717948717948,0.08809523809523809,0.2555555555555556,1970-01-01 00:00:01.766499058,0,3,1,1,Muvattupuzha,476.0,2.0,60.0,0.0,0.0,13.26,1174.11,550.15,894.22,340.4,9.9831493,76.5781613
Theni,0.09600084192801517,Satisfactory,0.0982149232416994,Satisfactory,0.08674952683850069,Very Poor,0.09969469234382336,Good,0.0702529548216061,Good,0.4508208028693614,Moderate,4,245585698,0.8386347805897376,0.5384615384615384,0.2238095238095238,0.9500000000000001,1970-01-01 00:00:01.766499058,0,3,1,1,Theni,337.0,4.0,3.0,0.0,0.0,16.43,802.75,827.91,894.22,340.4,10.0108143,77.4810104
Melur,0.05207324773731847,Good,0.057693680828275626,Good,0.07552242883065696,Poor,0.16193048379520897,Good,0.06042195957141278,Good,0.2740607899940222,Satisfactory,3,245585726,0.8732296261899234,0.6282051282051282,0.4011904761904762,0.13333333333333333,1970-01-01 00:00:01.766498492,0,3,1,1,Melur,157.0,0.0,0.0,0.0,0.0,0.0,916.48,814.3299999999999,894.22,340.4,10.0309005,78.337589
Angamaly,0.16716480740896653,Satisfactory,0.15473045340949662,Satisfactory,0.07098398080037462,Poor,0.006693283231564114,Good,0.031481276924776314,Good,0.5800340276819791,Moderate,5,245586161,0.9816577664267472,0.41025641025641024,0.24523809523809523,0.7222222222222222,1970-01-01 00:00:01.766499058,0,3,1,1,Angamaly,575.0,12.0,6.0,0.0,0.0,43.26,1285.45,704.47,894.22,340.4,10.1910284,76.3874109
Natham,0.06590191538623448,Good,0.07142092109960729,Good,0.08336227585803202,Very Poor,0.15335838421794265,Good,0.05854412901800508,Good,0.2712558053984458,Satisfactory,3,245586200,0.8472254469468308,0.6666666666666666,0.24285714285714285,0.14444444444444446,1970-01-01 00:00:01.766499058,0,3,1,1,Natham,80.0,2.0,1.0,0.0,0.0,0.0,2099.1,754.91,894.22,340.4,10.2256894,78.2299964
Chinnalapatti,0.09130709324352769,Good,0.09594787575865764,Satisfactory,0.10329554545277164,Very Poor,0.1705025833724753,Good,0.05998011708825803,Good,0.29797213408746037,Satisfactory,3,245586306,0.8319015556071512,0.6666666666666666,0.1357142857142857,0.044444444444444446,1970-01-01 00:00:01.766498820,0,3,1,1,Chinnalapatti,665.0,1.0,2.0,0.0,0.0,11.94,1175.59,1464.06,894.22,340.4,10.2767592,77.9218398
Dindigul,0.09130709324352769,Good,0.09594787575865764,Satisfactory,0.10329554545277164,Very Poor,0.1705025833724753,Good,0.05998011708825803,Good,0.29797213408746037,Satisfactory,3,245586375,0.8414209426514976,0.641025641025641,0.12738095238095237,0.21666666666666667,1970-01-01 00:00:01.766498761,0,3,1,1,Dindigul,1590.0,1.0,0.0,0.0,0.0,7.63,2343.34,814.3299999999999,894.22,340.4,10.365646,77.9693256
Thuvarankurichchi,0.06590191538623448,Good,0.07142092109960729,Good,0.08336227585803202,Very Poor,0.15335838421794265,Good,0.05854412901800508,Good,0.2712558053984458,Satisfactory,3,245586401,0.8504759693522173,0.6666666666666666,0.25595238095238093,0.17222222222222222,1970-01-01 00:00:01.766499058,0,3,1,1,Thuvarankurichchi,52.0,0.0,0.0,0.0,0.0,27.97,916.48,814.3299999999999,894.22,340.4,10.3758009,78.3872851
Muthupet,0.03494001262892023,Good,0.0414494823277401,Good,0.03428616027004351,Moderate,0.032057303898543915,Good,0.028940682646636472,Good,0.3669011817721985,Satisfactory,2,245586442,0.8634780589737636,0.7692307692307693,0.5166666666666666,0.13055555555555556,1970-01-01 00:00:01.766499058,0,3,1,1,Muthupet,203.0,0.0,2.0,0.0,0.0,12.1,916.48,1393.33,894.22,340.4,10.3956923,79.4944659
Vedasandur,0.1139128604504315,Satisfactory,0.11772581220992506,Satisfactory,0.11667674777077519,Very Poor,0.17132456552372002,Good,0.057218601568540806,Good,0.29217823148020416,Satisfactory,4,245586675,0.8562804736475504,0.5897435897435898,0.19047619047619047,0.32222222222222224,1970-01-01 00:00:01.766499058,0,3,1,1,Vedasandur,244.0,4.0,0.0,0.0,0.0,17.05,1664.82,814.3299999999999,894.22,340.4,10.5324146,77.9463173
Udumalapettai,0.16766996421805938,Satisfactory,0.16137093895037488,Satisfactory,0.12419269867905017,Severe,0.13269140441521837,Good,0.07069479730476085,Good,0.5316595392467927,Moderate,5,245586959,0.8156489435802182,0.6025641025641025,0.21666666666666667,0.4222222222222222,1970-01-01 00:00:01.766499058,0,3,1,1,Udumalapettai,1177.0,0.0,3.0,0.0,0.0,65.01,916.48,1324.35,894.22,340.4,10.5839,77.25
Orathanadu,0.047905704062302684,Good,0.0526419136022849,Good,0.04899026360461259,Poor,0.078088304368248,Good,0.048381751905445705,Good,0.33825355221409853,Satisfactory,3,245587128,0.8390991409333642,0.7564102564102563,0.3892857142857143,0.16666666666666669,1970-01-01 00:00:01.766499058,0,3,1,1,Orathanadu,185.0,0.0,0.0,0.0,0.0,83.16,916.48,814.3299999999999,894.22,340.4,10.6296502,79.2515516
Kilvelur,0.03607661544937908,Good,0.04269903605855052,Good,0.038126085344676194,Moderate,0.05014091122592766,Good,0.03391141058212747,Good,0.34161033705798505,Satisfactory,2,245587450,0.8551195727884839,0.8076923076923076,0.47619047619047616,0.10555555555555556,1970-01-01 00:00:01.766499058,0,3,1,1,Kilvelur,89.0,0.0,0.0,0.0,0.0,3.19,916.48,814.3299999999999,894.22,340.4,10.7690209,79.7421122
Thanjavur,0.05030519890549359,Good,0.05419493038200644,Good,0.05075022926381924,Poor,0.08172851103804601,Good,0.0573290621893295,Good,0.35002529084471423,Satisfactory,3,245587589,0.8901787787322962,0.7564102564102563,0.4095238095238095,0.19444444444444445,1970-01-01 00:00:01.766499058,0,3,1,1,Thanjavur,1403.0,0.0,2.0,0.0,0.0,38.21,916.48,1238.2,894.22,340.4,10.7860267,79.1381497
Lalgudi,0.06221848031993264,Good,0.06594073545162443,Good,0.07223663928508711,Poor,0.12317989666510094,Good,0.07246216723737987,Good,0.31852669333701206,Satisfactory,3,245587903,0.9182725795217088,0.6538461538461539,0.24523809523809523,0.25,1970-01-01 00:00:01.766498675,0,3,1,1,Lalgudi,265.0,0.0,0.0,0.0,0.0,26.16,916.48,814.3299999999999,894.22,340.4,10.877163,78.8138944
Kodavasal,0.04594822142706799,Good,0.05098179221706534,Good,0.049571715673840513,Poor,0.08290277125410989,Good,0.05346294046172539,Good,0.33062031544580867,Satisfactory,3,245588416,0.8363129788716044,0.8076923076923076,0.4154761904761905,0.1388888888888889,1970-01-01 00:00:01.766499058,0,3,1,1,Kodavasal,154.0,0.0,0.0,0.0,0.0,0.0,916.48,814.3299999999999,894.22,340.4,10.8552828,79.4809565
Musiri,0.09118080404125449,Good,0.09546590503391647,Satisfactory,0.10715107997892723,Very Poor,0.17132456552372002,Good,0.07864796200154645,Good,0.2978801673794087,Satisfactory,3,245588792,0.8720687253308568,0.5641025641025641,0.37976190476190474,0.2111111111111111,1970-01-01 00:00:01.766499058,0,3,1,1,Musiri,307.0,0.0,2.0,0.0,0.0,2.94,916.48,530.87,894.22,340.4,10.951573,78.4419808
Karur,0.13938118290886128,Satisfactory,0.1452338450553374,Satisfactory,0.15400675108778364,Severe,0.23273837482386092,Good,0.08052579255495416,Good,0.26877270428105027,Satisfactory,4,245588836,0.8818202925470164,0.5256410256410257,0.31309523809523804,0.3472222222222222,1970-01-01 00:00:01.766499058,0,3,1,1,Karur,771.0,0.0,1.0,0.0,0.0,27.76,916.48,2528.27,894.22,340.4,10.9596041,78.0807797
Kumbakonam,0.05253630814565355,Good,0.056622634773295266,Good,0.05533550564867026,Poor,0.09581963363081256,Good,0.06252071136639788,Good,0.33029843196762776,Satisfactory,3,245588875,0.8323659159507778,0.7948717948717948,0.40595238095238095,0.14722222222222223,1970-01-01 00:00:01.766498834,0,3,1,1,Kumbakonam,1340.0,1.0,0.0,0.0,0.0,57.37,976.14,814.3299999999999,894.22,340.4,10.9604108,79.3820861
Palladam,0.1629130709324353,Satisfactory,0.15846126383434492,Satisfactory,0.12741995278140913,Severe,0.14913104744011269,Good,0.0651717662653264,Good,0.46300639168620966,Moderate,5,245589056,0.9883909914093336,0.47435897435897434,0.2928571428571428,0.275,1970-01-01 00:00:01.766499058,0,3,1,1,Palladam,515.0,5.0,0.0,0.0,0.0,13.78,371.04,814.3299999999999,894.22,340.4,10.9962313,77.2835582
Thottiyam,0.1152809934750579,Satisfactory,0.12034987504462696,Satisfactory,0.13165011414411423,Severe,0.2034992954438703,Good,0.07975256820943334,Good,0.28321147744516484,Satisfactory,4,245589070,0.8697469236127234,0.5769230769230769,0.3285714285714285,0.2388888888888889,1970-01-01 00:00:01.766499058,0,3,1,1,Thottiyam,91.0,0.0,1.0,0.0,0.0,0.36,916.48,448.83,894.22,340.4,10.9891847,78.3354402
Coimbatore,0.14032835192591034,Satisfactory,0.13687968582649054,Satisfactory,0.10295994224502936,Very Poor,0.10263034288398307,Good,0.06760189992267757,Good,0.5404423598657286,Moderate,4,245589078,0.9814255862549338,0.17948717948717946,0.18333333333333332,0.02777777777777778,1970-01-01 00:00:01.766499058,0,3,1,1,Coimbatore,1553.0,6.0,1.0,0.0,0.0,0.0,0.0,1762.69,894.22,340.4,11.0018115,76.9628425
Kangeyam,0.135929278046727,Satisfactory,0.13621920742591934,Satisfactory,0.11901036077344831,Very Poor,0.15652888680131513,Good,0.05302109797857064,Good,0.3241826458821907,Satisfactory,4,245589089,0.8588344555374972,0.41025641025641024,0.21547619047619046,0.34444444444444444,1970-01-01 00:00:01.766499058,0,3,1,1,Kangeyam,414.0,3.0,15.0,0.0,0.0,33.58,770.5,239.76,894.22,340.4,11.0060598,77.5607403
Thathaiyangarpet,0.1079983161439697,Satisfactory,0.11287040342734739,Satisfactory,0.13634465668962556,Severe,0.22674964772193512,Good,0.0920136971169778,Good,0.2783832252724514,Satisfactory,4,245589530,0.8620849779428836,0.5769230769230769,0.35,0.1527777777777778,1970-01-01 00:00:01.766499058,0,3,1,1,Thathaiyangarpet,76.0,0.0,0.0,0.0,0.0,0.0,916.48,814.3299999999999,894.22,340.4,11.121255,78.4496465
Thuraiyur,0.1079983161439697,Satisfactory,0.11287040342734739,Satisfactory,0.13634465668962556,Severe,0.22674964772193512,Good,0.0920136971169778,Good,0.2783832252724514,Satisfactory,4,245589607,0.8634780589737636,0.5641025641025641,0.3583333333333333,0.11388888888888889,1970-01-01 00:00:01.766498780,0,3,1,1,Thuraiyur,450.0,0.0,2.0,0.0,0.0,1.41,916.48,342.93,894.22,340.4,11.1518947,78.5957098
Ariyalur,0.06444958956009263,Good,0.06836843984291326,Good,0.07676338022672728,Poor,0.13703616721465472,Good,0.07765381641444824,Good,0.29912171793810644,Satisfactory,3,245589617,0.8873926166705363,0.6538461538461539,0.4178571428571428,0.2111111111111111,1970-01-01 00:00:01.766499058,0,3,1,1,Ariyalur,303.0,2.0,0.0,0.0,0.0,72.29,1536.12,814.3299999999999,894.22,340.4,11.1357708,79.0723203
Jayankondam,0.06177646811197644,Good,0.06460192788289898,Good,0.06792062593900605,Poor,0.13093001409112254,Good,0.09057770904672485,Good,0.3145261415367637,Satisfactory,3,245589987,0.8312050150917112,0.7948717948717948,0.3964285714285714,0.17222222222222222,1970-01-01 00:00:01.766499058,0,3,1,1,Jayankondam,101.0,0.0,0.0,0.0,0.0,17.68,916.48,814.3299999999999,894.22,340.4,11.2119861,79.3648642
Perambalur,0.08124605346242898,Good,0.08632631203141737,Satisfactory,0.1103783340812862,Very Poor,0.19621888210427427,Good,0.08461283552413564,Good,0.2347450223019267,Satisfactory,3,245590129,0.8574413745066172,0.6153846153846153,0.2642857142857143,0.1388888888888889,1970-01-01 00:00:01.766499058,0,3,1,1,Perambalur,535.0,0.0,1.0,0.0,0.0,2.43,916.48,1006.97,894.22,340.4,11.2356695,78.8688353
Sendurai,0.07152178488739214,Good,0.07547304534094967,Good,0.08949288794364987,Very Poor,0.16404415218412396,Good,0.08759527228543024,Good,0.27410677334804806,Satisfactory,3,245590422,0.886463895983283,0.7564102564102563,0.4261904761904762,0.20277777777777778,1970-01-01 00:00:01.766499058,0,3,1,1,Sendurai,9.0,1.0,1.0,0.0,0.0,49.52,1142.49,1927.57,894.22,340.4,11.2538986,79.1771548
Sendamangalam,0.15866133445590402,Satisfactory,0.16331667261692256,Satisfactory,0.1947474195625451,Severe,0.3272663222170032,Good,0.12570418645752787,Good,0.31613555892766826,Satisfactory,5,245590728,0.9182725795217088,0.5897435897435898,0.2095238095238095,0.18611111111111112,1970-01-01 00:00:01.766499058,0,3,1,1,Sendamangalam,37.0,0.0,0.0,0.0,0.0,26.03,916.48,814.3299999999999,894.22,340.4,11.2812016,78.2350768
Tiruchengodu,0.16562828878130922,Satisfactory,0.16913602284898255,Moderate,0.18650562915845542,Severe,0.30037576326914034,Good,0.11443720313708164,Good,0.3386674024003311,Satisfactory,5,245591866,0.9087531924773624,0.39743589743589747,0.1464285714285714,0.3861111111111111,1970-01-01 00:00:01.766499058,0,3,1,1,Tiruchengodu,874.0,2.0,0.0,0.0,0.0,1.71,789.43,814.3299999999999,894.22,340.4,11.3786608,77.8949223
Tittakudi,0.07318459271732268,Good,0.07663334523384506,Good,0.08421689332891064,Very Poor,0.17273367778299667,Good,0.13288412680879266,Good,0.3014668689934244,Satisfactory,3,245592033,0.8534943115857906,0.6923076923076923,0.42142857142857143,0.20555555555555557,1970-01-01 00:00:01.766499058,0,3,1,1,Tittakudi,272.0,0.0,0.0,0.0,0.0,0.0,916.48,814.3299999999999,894.22,340.4,11.402175,79.1210712
Pennadam,0.06710166280782993,Good,0.07015351660121387,Good,0.07224834637372929,Poor,0.16333959605448561,Good,0.14061637026400087,Good,0.315031958431048,Satisfactory,3,245592145,0.8453680055723242,0.7564102564102563,0.4261904761904762,0.20833333333333334,1970-01-01 00:00:01.766499058,0,3,1,1,Pennadam,131.0,1.0,0.0,0.0,0.0,19.72,2119.7,814.3299999999999,894.22,340.4,11.4028109,79.2416716
Udhagamandalam,0.1359924226478636,Satisfactory,0.1336843984291325,Satisfactory,0.09374646348363933,Very Poor,0.08078910286519492,Good,0.06605545123163592,Good,0.52250885179565,Moderate,4,245592179,0.5449268632458788,0.8461538461538461,0.04047619047619048,0.4527777777777778,1970-01-01 00:00:01.766498797,0,3,1,1,Udhagamandalam,557.0,2.0,10.0,0.0,0.0,20.63,1339.18,222.67,894.22,340.4,11.4126769,76.7030504
Bhavani,0.11574405388339297,Satisfactory,0.11915387361656554,Satisfactory,0.12456732551559968,Severe,0.19011272898074208,Good,0.07743289517287087,Good,0.34538097208810414,Satisfactory,4,245592587,0.9194334803807755,0.4358974358974359,0.06547619047619048,0.3,1970-01-01 00:00:01.766499058,0,3,1,1,Bhavani,944.0,0.0,1.0,0.0,0.0,42.09,916.48,1677.37,894.22,340.4,11.4405993,77.6824386
Sankagiri,0.13075142075352558,Satisfactory,0.13389860764012854,Satisfactory,0.14823905875007315,Severe,0.23978393612024418,Good,0.09875179498508782,Good,0.3727410677334805,Satisfactory,4,245593029,0.8983050847457628,0.423076923076923,0.14166666666666666,0.25,1970-01-01 00:00:01.766499058,0,3,1,1,Sankagiri,297.0,3.0,0.0,0.0,0.0,16.74,1449.6,814.3299999999999,894.22,340.4,11.4760857,77.8704045
Veeraganur,0.08537150073668702,Good,0.08957515173152447,Satisfactory,0.10725644377670679,Very Poor,0.19069985908877402,Good,0.1176405611399536,Good,0.27498045707453905,Satisfactory,3,245593044,0.8460645460877642,0.5641025641025641,0.25595238095238093,0.05277777777777778,1970-01-01 00:00:01.766499058,0,3,1,1,Veeraganur,30.0,0.0,0.0,0.0,0.0,63.64,916.48,814.3299999999999,894.22,340.4,11.4761379,78.7380844
Parangipettai,0.05078930751420754,Good,0.05564084255622992,Good,0.06037735849056604,Poor,0.12811178957256925,Good,0.09168231525461173,Good,0.3098358394261278,Satisfactory,3,245593200,0.909217552820989,0.6923076923076923,0.7726190476190476,0.1277777777777778,1970-01-01 00:00:01.766499058,0,3,1,1,Parangipettai,216.0,0.0,0.0,0.0,0.0,5.79,916.48,814.3299999999999,894.22,340.4,11.4905673,79.7568983
Gangavalli,0.08537150073668702,Good,0.08957515173152447,Satisfactory,0.10725644377670679,Very Poor,0.19069985908877402,Good,0.1176405611399536,Good,0.27498045707453905,Satisfactory,3,245593619,0.8300441142326445,0.6025641025641025,0.20119047619047617,0.11388888888888889,1970-01-01 00:00:01.766499058,0,3,1,1,Gangavalli,112.0,0.0,0.0,0.0,0.0,4.64,916.48,814.3299999999999,894.22,340.4,11.499684,78.6447079
Attayampatti,0.14575878762365818,Satisfactory,0.14862549089610855,Satisfactory,0.16997521999570736,Severe,0.2855800845467355,Good,0.11830332486468574,Good,0.39738814549133217,Satisfactory,4,245594398,0.861620617599257,0.4871794871794871,0.2523809523809524,0.19444444444444445,1970-01-01 00:00:01.766499058,0,3,1,1,Attayampatti,838.0,0.0,0.0,0.0,0.0,2.89,916.48,814.3299999999999,894.22,340.4,11.531861,78.0508039
Anthiyur,0.10073668701326038,Satisfactory,0.10442699036058553,Satisfactory,0.09896392265516768,Very Poor,0.13680131517144195,Good,0.05467800729040096,Good,0.31530785855520305,Satisfactory,4,245595343,0.901323426979336,0.47435897435897434,0.05357142857142857,0.638888888888889,1970-01-01 00:00:01.766499058,0,3,1,1,Anthiyur,61.0,0.0,1.0,0.0,0.0,66.14,916.48,511.34,894.22,340.4,11.575293,77.5886003
Kalpetta,0.18086718585560935,Satisfactory,0.16985005355230276,Moderate,0.08061111002712143,Poor,0.011272898074213243,Good,0.04738760631834751,Good,0.632960868165724,Moderate,5,245596484,0.7452983515207802,0.717948717948718,0.12380952380952381,0.02777777777777778,1970-01-01 00:00:01.766499058,0,3,1,1,Kalpetta,131.0,0.0,12.0,0.0,0.0,0.03,916.48,1423.58,894.22,340.4,11.610278,76.08281
Kallakurichi,0.07731003999158073,Good,0.07988218493395217,Satisfactory,0.08110671011297339,Poor,0.16721465476749642,Good,0.16646415552855404,Good,0.34239205407642437,Satisfactory,3,245598247,0.8581379150220572,0.5128205128205128,0.3226190476190476,0.030555555555555558,1970-01-01 00:00:01.766499058,0,3,1,1,Kallakurichi,488.0,1.0,5.0,0.0,0.0,27.53,1607.3,955.19,894.22,340.4,11.7406259,78.9637131
Thiyagadurgam,0.07486844874763209,Good,0.07779364512674047,Good,0.0788745585451991,Poor,0.18142320338186937,Good,0.17861482381530983,Good,0.32910286476295586,Satisfactory,3,245598263,0.864406779661017,0.5256410256410257,0.3226190476190476,0.08611111111111111,1970-01-01 00:00:01.766499058,0,3,1,1,Thiyagadurgam,252.0,0.0,0.0,0.0,0.0,0.0,916.48,814.3299999999999,894.22,340.4,11.7417773,79.0733496
Mettur,0.09271732266891182,Good,0.09639414494823279,Satisfactory,0.10177362392928918,Very Poor,0.15664631282292152,Good,0.0740086159284215,Good,0.38658205729525913,Satisfactory,3,245598417,0.9131646157418157,0.47435897435897434,0.16666666666666666,0.05555555555555556,1970-01-01 00:00:01.766499058,0,3,1,1,Mettur,551.0,3.0,0.0,0.0,0.0,32.62,210.35,814.3299999999999,894.22,340.4,11.7902463,77.7980929
Yercaud,0.09261208166701748,Good,0.09457336665476618,Satisfactory,0.10223410274921463,Very Poor,0.17860497886331606,Good,0.10990831768474539,Good,0.40538924909182883,Satisfactory,3,245598638,0.6823775249593684,0.6538461538461539,0.24880952380952379,0.18888888888888888,1970-01-01 00:00:01.766499058,0,3,1,1,Yercaud,104.0,0.0,0.0,0.0,0.0,20.01,916.48,814.3299999999999,894.22,340.4,11.7852074,78.2075392
Gundlupet,0.17682593138286676,Satisfactory,0.17065333809353805,Moderate,0.11364851417533314,Very Poor,0.08219821512447156,Good,0.08074671379653153,Good,0.5732744746401802,Moderate,5,245598696,0.770838170420246,0.5641025641025641,0.21666666666666667,0.33055555555555555,1970-01-01 00:00:01.766499058,0,3,1,1,Gundlupet,499.0,0.0,2.0,0.0,0.0,17.68,916.48,755.5,894.22,340.4,11.808496,76.6916141
Sankarapuram,0.07535255735634604,Good,0.07665119600142808,Good,0.06603578466761624,Poor,0.15230155002348517,Good,0.20843919142825582,Good,0.39757207890743557,Satisfactory,3,245599518,0.8483863478058974,0.5256410256410257,0.2571428571428572,0.030555555555555558,1970-01-01 00:00:01.766499058,0,3,1,1,Sankarapuram,197.0,0.0,0.0,0.0,0.0,2.35,916.48,814.3299999999999,894.22,340.4,11.8873761,78.9166118
Chamarajanagara,0.15918753946537573,Satisfactory,0.1566761870760443,Satisfactory,0.12238200230239407,Severe,0.11589948332550491,Good,0.0958798188445819,Good,0.523382535522141,Moderate,5,245599932,0.7866264221035524,0.5641025641025641,0.2523809523809524,0.30833333333333335,1970-01-01 00:00:01.766499058,0,3,1,1,Chamarajanagara,697.0,2.0,0.0,0.0,0.0,13.0,746.32,814.3299999999999,894.22,340.4,11.9238058,76.9393558
Puducherry,0.05194695853504526,Good,0.05789003927168869,Good,0.06592651850695597,Poor,0.1332785345232503,Good,0.0959902794653706,Good,0.30776658849496485,Satisfactory,3,245600130,0.887160436498723,0.6025641025641025,0.7773809523809524,0.09166666666666667,1970-01-01 00:00:01.766499058,0,3,1,1,Puducherry,1398.0,9.0,0.0,0.0,2.0,26.55,377.55,814.3299999999999,894.22,348.66,11.9340568,79.8306447
Taliparamba,0.18404546411281839,Satisfactory,0.16719028918243486,Satisfactory,0.08576613139255819,Very Poor,0.005049318929074682,Good,0.023196730365624654,Good,0.5804938612222375,Moderate,5,245601884,0.837473879730671,0.641025641025641,0.13928571428571426,0.9916666666666667,1970-01-01 00:00:01.766499058,0,3,1,1,Taliparamba,230.0,1.0,6.0,0.0,0.0,8.95,577.02,886.08,894.22,340.4,12.0373542,75.3602841
Sreekandapuram,0.189349610608293,Satisfactory,0.17336665476615495,Moderate,0.08751829232600339,Very Poor,0.006575857209957727,Good,0.029272064509002535,Good,0.5974157355037476,Moderate,5,245601929,0.8251683306245646,0.6666666666666666,0.11428571428571427,0.019444444444444445,1970-01-01 00:00:01.766499058,0,3,1,1,Sreekandapuram,51.0,1.0,9.0,0.0,0.0,45.6,773.16,135.48,894.22,340.4,12.0472242,75.5104585
Hanur,0.10244159124394865,Satisfactory,0.1078721885041057,Satisfactory,0.12535170045462526,Severe,0.17684358853922025,Good,0.08715342980227549,Good,0.4438773164114591,Moderate,4,245602267,0.7833758996981658,0.5384615384615384,0.18928571428571428,0.41111111111111115,1970-01-01 00:00:01.766499058,0,3,1,1,Hanur,121.0,0.0,0.0,0.0,0.0,20.06,916.48,814.3299999999999,894.22,340.4,12.0870315,77.3017969
Yelanduru,0.12841507051147127,Satisfactory,0.13222063548732596,Satisfactory,0.140980663791926,Severe,0.1850634100516674,Good,0.09731580691483485,Good,0.4672368602565872,Moderate,4,245602307,0.7949849082888322,0.5,0.20238095238095236,0.3,1970-01-01 00:00:01.766499058,0,3,1,1,Yelanduru,18.0,0.0,0.0,0.0,0.0,72.61,916.48,814.3299999999999,894.22,340.4,12.0463301,77.0306546
Nileshwaram,0.16402862555251527,Satisfactory,0.14798286326312032,Satisfactory,0.08115744083042281,Poor,0.003640206669798027,Good,0.014912183806472992,Good,0.5560767002345152,Moderate,5,245602596,0.886463895983283,0.5641025641025641,0.1285714285714286,0.9861111111111112,1970-01-01 00:00:01.766499058,0,3,1,1,Nileshwaram,213.0,0.0,29.0,0.0,0.0,33.48,916.48,627.05,894.22,340.4,12.250817,75.1281569
Nanjanagudu,0.17305830351504944,Satisfactory,0.1696536951088897,Moderate,0.13959142260638815,Severe,0.13703616721465472,Good,0.08925218159726057,Good,0.5456384788706489,Moderate,5,245602738,0.9048061295565358,0.3717948717948718,0.2714285714285714,0.22777777777777777,1970-01-01 00:00:01.766499058,0,3,1,1,Nanjanagudu,796.0,1.0,0.0,0.0,0.0,1.67,2126.5,814.3299999999999,894.22,340.4,12.1186851,76.6817502
Kollegal,0.12841507051147127,Satisfactory,0.13222063548732596,Satisfactory,0.140980663791926,Severe,0.1850634100516674,Good,0.09731580691483485,Good,0.4672368602565872,Moderate,4,245603249,0.7949849082888322,0.4871794871794871,0.18095238095238095,0.3388888888888889,1970-01-01 00:00:01.766499058,0,3,1,1,Kollegal,125.0,0.0,0.0,0.0,0.0,29.48,916.48,814.3299999999999,894.22,340.4,12.1560966,77.1071726
Tiruvannamalai,0.08099347505788256,Good,0.0861299535880043,Satisfactory,0.08725293165011413,Very Poor,0.20796148426491307,Good,0.1831437092676461,Good,0.33057433209178283,Satisfactory,3,245603915,0.8332946366380312,0.5256410256410257,0.30238095238095236,0.10555555555555556,1970-01-01 00:00:01.766499058,0,3,1,1,Tiruvannamalai,1154.0,1.0,0.0,0.0,0.0,40.7,1424.11,814.3299999999999,894.22,340.4,12.2343228,79.0761989
Chengam,0.07103767627867819,Good,0.07472331310246343,Good,0.08017404538448031,Poor,0.15511977454203849,Good,0.17408593836297356,Good,0.4189543385294524,Moderate,3,245605597,0.8128627815184584,0.5641025641025641,0.20357142857142854,0.13055555555555556,1970-01-01 00:00:01.766499059,0,3,1,1,Chengam,234.0,0.0,0.0,0.0,0.0,39.51,916.48,814.3299999999999,894.22,340.4,12.3075866,78.7931408
Periyapatna,0.2001262892022732,Moderate,0.18473759371652984,Moderate,0.10455210630036485,Very Poor,0.021841240018788156,Good,0.044405169557052905,Good,0.6258334482917184,Moderate,5,245606031,0.7659623868121663,0.3717948717948718,0.15,0.20833333333333334,1970-01-01 00:00:01.766499059,0,3,1,1,Periyapatna,83.0,0.0,1.0,0.0,0.0,101.98,916.48,1955.47,894.22,340.4,12.3372494,76.0988013
Cheyur,0.06103978109871608,Good,0.06601213852195646,Good,0.05970224971220074,Poor,0.08983090652888678,Good,0.08847895725173974,Good,0.3967443785349704,Satisfactory,3,245606122,0.8739261667053634,0.5769230769230769,0.6666666666666666,0.07222222222222223,1970-01-01 00:00:01.766499059,0,3,1,1,Cheyur,75.0,0.0,0.0,0.0,0.0,0.0,916.48,814.3299999999999,894.22,340.4,12.3521251,80.0037515
Malavalli,0.1245842980425174,Satisfactory,0.1320242770439129,Satisfactory,0.1670874714639714,Severe,0.24213245655237192,Good,0.10405390478294486,Good,0.4483377017519659,Moderate,4,245606282,0.8061295565358718,0.4358974358974359,0.27619047619047615,0.2833333333333333,1970-01-01 00:00:01.766499059,0,3,1,1,Malavalli,149.0,0.0,0.0,0.0,0.0,64.64,916.48,814.3299999999999,894.22,340.4,12.3864073,77.0589464
Krishnarajanagara,0.20686171332351083,Moderate,0.19034273473759375,Moderate,0.11951766794794247,Very Poor,0.03628464067637388,Good,0.05401524356566883,Good,0.6239481307766589,Moderate,5,245606844,0.8084513582540052,0.34615384615384615,0.3464285714285714,0.2388888888888889,1970-01-01 00:00:01.766498513,0,3,1,1,Krishnarajanagara,527.0,0.0,0.0,0.0,0.0,67.5,916.48,814.3299999999999,894.22,340.4,12.438561,76.3836699
Rayakottai,0.061797516312355305,Good,0.0655301677972153,Good,0.07314588983629589,Poor,0.1794269610145608,Good,0.11001877830553408,Good,0.44061249827562426,Moderate,3,245607252,0.7703738100766194,0.5,0.2892857142857143,0.13055555555555556,1970-01-01 00:00:01.766499059,0,3,1,1,Rayakottai,17.0,0.0,0.0,0.0,0.0,17.93,916.48,814.3299999999999,894.22,340.4,12.5136509,78.0323496
Sulya,0.15676699642180594,Satisfactory,0.14216351303106037,Satisfactory,0.08260131509629079,Poor,0.004931892907468294,Good,0.014912183806472992,Good,0.5585138179978848,Moderate,5,245607359,0.8244717901091247,0.7307692307692307,0.10119047619047618,0.36944444444444446,1970-01-01 00:00:01.766499059,0,3,1,1,Sulya,31.0,0.0,0.0,0.0,0.0,210.39,916.48,814.3299999999999,894.22,340.4,12.5576644,75.3907575
Saligrama,0.20686171332351083,Moderate,0.19034273473759375,Moderate,0.11951766794794247,Very Poor,0.03628464067637388,Good,0.05401524356566883,Good,0.6239481307766589,Moderate,5,245607629,0.7980032505224054,0.34615384615384615,0.2714285714285714,0.2611111111111111,1970-01-01 00:00:01.766499059,0,3,1,1,Saligrama,77.0,0.0,0.0,0.0,0.0,4.17,916.48,814.3299999999999,894.22,340.4,12.5601566,76.2628551
Jolarpet,0.066933277204799,Good,0.07179578721885042,Good,0.08491931864744101,Very Poor,0.1764913104744011,Good,0.14680216502816745,Good,0.41991998896399507,Moderate,3,245607635,0.8003250522405386,0.5384615384615384,0.2642857142857143,0.1388888888888889,1970-01-01 00:00:01.766499059,0,3,1,1,Jolarpet,170.0,0.0,0.0,0.0,0.0,36.37,916.48,814.3299999999999,894.22,340.4,12.5643214,78.5797192
Somwarpet,0.18341401810145233,Satisfactory,0.1678329168154231,Satisfactory,0.10064974341964059,Very Poor,0.016791921089713474,Good,0.03103943444162156,Good,0.5936451004736285,Moderate,5,245607925,0.6937543533782216,0.6025641025641025,0.1119047619047619,0.8972222222222223,1970-01-01 00:00:01.766499059,0,3,1,1,Somwarpet,36.0,0.0,0.0,0.0,0.0,42.0,916.48,814.3299999999999,894.22,340.4,12.5971883,75.8466865
Krishnarajapete,0.14371711218690802,Satisfactory,0.13998571938593363,Satisfactory,0.13822949796101539,Severe,0.1490136214185063,Good,0.06417762067822821,Good,0.47105347864073216,Moderate,4,245608408,0.8040399349895518,0.34615384615384615,0.26785714285714285,0.2888888888888889,1970-01-01 00:00:01.766499059,0,3,1,1,Krishnarajapete,21.0,0.0,0.0,0.0,0.0,48.58,916.48,814.3299999999999,894.22,340.4,12.6655205,76.4896194
Channapattana,0.0757735213639234,Good,0.08473759371652984,Satisfactory,0.14152309223234666,Severe,0.22557538750587128,Good,0.07389815530763283,Good,0.40253828114222656,Satisfactory,3,245608414,0.7910378453680056,0.4358974358974359,0.3988095238095238,0.25277777777777777,1970-01-01 00:00:01.766499059,0,3,1,1,Channapattana,545.0,3.0,0.0,0.0,0.0,90.17,760.74,814.3299999999999,894.22,340.4,12.6544559,77.2042594
Subramanya,0.14390654599031782,Satisfactory,0.13214923241699397,Satisfactory,0.08287838286082223,Poor,0.011625176139032408,Good,0.01966199050038661,Good,0.5603071688048926,Moderate,4,245608560,0.8144880427211516,0.7307692307692307,0.10476190476190475,0.26944444444444443,1970-01-01 00:00:01.766499059,0,3,1,1,Subramanya,25.0,0.0,0.0,0.0,0.0,58.22,916.48,814.3299999999999,894.22,340.4,12.6677868,75.6131771
Vaniyambadi,0.06411281835403075,Good,0.0714566226347733,Good,0.09836295877153614,Very Poor,0.19727571629873178,Good,0.13133767811775102,Good,0.3584862279854693,Satisfactory,3,245608828,0.798467610866032,0.5641025641025641,0.24880952380952379,0.1277777777777778,1970-01-01 00:00:01.766499059,0,3,1,1,Vaniyambadi,682.0,0.0,0.0,0.0,0.0,5.3,916.48,814.3299999999999,894.22,340.4,12.6787174,78.6199879
Vepanapalli,0.052852031151336576,Good,0.056694037843627296,Good,0.07193225498039063,Poor,0.16968060122123058,Good,0.08638020545675466,Good,0.39518094449809177,Satisfactory,3,245609115,0.7873229626189924,0.4871794871794871,0.36428571428571427,0.13333333333333333,1970-01-01 00:00:01.766499059,0,3,1,1,Vepanapalli,18.0,0.0,0.0,0.0,0.0,12.66,916.48,814.3299999999999,894.22,340.4,12.7017272,78.1944154
Anekal,0.057335297832035365,Good,0.064691181720814,Good,0.10932859846637139,Very Poor,0.19340065758572095,Good,0.07135756102949299,Good,0.3981698625097715,Satisfactory,3,245609200,0.8235430694218713,0.5256410256410257,0.4714285714285714,0.2388888888888889,1970-01-01 00:00:01.766499059,0,3,1,1,Anekal,1036.0,2.0,2.0,0.0,0.0,33.49,304.44,1598.71,894.22,340.4,12.7086373,77.6993972
Ramanagara,0.0757735213639234,Good,0.08473759371652984,Satisfactory,0.14152309223234666,Severe,0.22557538750587128,Good,0.07389815530763283,Good,0.40253828114222656,Satisfactory,3,245609255,0.7831437195263524,0.423076923076923,0.4202380952380952,0.24722222222222223,1970-01-01 00:00:01.766499059,0,3,1,1,Ramanagara,818.0,0.0,0.0,0.0,0.0,9.26,916.48,814.3299999999999,894.22,340.4,12.7252766,77.2804797
Ramanagara,0.0757735213639234,Good,0.08473759371652984,Satisfactory,0.14152309223234666,Severe,0.22557538750587128,Good,0.07389815530763283,Good,0.40253828114222656,Satisfactory,3,718889046,0.799164151381472,0.3076923076923077,0.2571428571428572,0.15833333333333333,1970-01-01 00:00:01.766499071,0,3,1,1,Ramanagara,131.0,3.0,0.0,1.0,0.0,22.55,257.73,814.3299999999999,2015.85,340.4,15.4221246,74.4887881
Arkalgud,0.1556303936013471,Satisfactory,0.14509103891467337,Satisfactory,0.10639402158006672,Very Poor,0.05906528886801315,Good,0.038661217276041084,Good,0.5217271347772107,Moderate,5,245610023,0.7768748548873926,0.3205128205128205,0.12738095238095237,0.04166666666666667,1970-01-01 00:00:01.766499059,0,3,1,1,Arkalgud,78.0,0.0,0.0,0.0,0.0,33.48,916.48,814.3299999999999,894.22,340.4,12.7627771,76.0623411
Puttur,0.14112818354030732,Satisfactory,0.12856122813280974,Satisfactory,0.07882382782774969,Poor,0.00692813527477689,Good,0.01513310504805037,Good,0.5478456798638892,Moderate,4,245610069,0.814023682377525,0.7564102564102563,0.07619047619047618,0.6972222222222223,1970-01-01 00:00:01.766499059,0,3,1,1,Puttur,248.0,0.0,0.0,0.0,0.0,56.73,916.48,814.3299999999999,894.22,340.4,12.7632858,75.2018421
Puttur,0.14112818354030732,Satisfactory,0.12856122813280974,Satisfactory,0.07882382782774969,Poor,0.00692813527477689,Good,0.01513310504805037,Good,0.5478456798638892,Moderate,4,312851862,0.9078244717901092,0.7692307692307693,0.27976190476190477,0.07777777777777778,1970-01-01 00:00:01.766499067,0,3,1,1,Puttur,234.0,1.0,0.0,0.0,0.0,0.0,351.34,814.3299999999999,894.22,340.4,13.4381418,79.5522138
Holenarasipura,0.16148179330667228,Satisfactory,0.15155301677972155,Satisfactory,0.11816354802833112,Very Poor,0.08290277125410989,Good,0.04827129128465702,Good,0.5024601094403826,Moderate,5,245610098,0.7959136289760855,0.3076923076923077,0.20476190476190476,0.15833333333333333,1970-01-01 00:00:01.766499059,0,3,1,1,Holenarasipura,225.0,0.0,0.0,0.0,0.0,3.98,916.48,814.3299999999999,894.22,340.4,12.7852158,76.2431266
Ullal,0.13613976005051567,Satisfactory,0.12345590860406999,Satisfactory,0.0748043940606037,Poor,0.004462188821042742,Good,0.011598365182812325,Good,0.5366257414815836,Moderate,4,245610394,0.9512421639192012,0.6025641025641025,0.18333333333333332,0.8611111111111112,1970-01-01 00:00:01.766499059,0,3,1,1,Ullal,396.0,0.0,0.0,0.0,0.0,48.36,916.48,814.3299999999999,894.22,340.4,12.8181202,74.8459375
Nagamangala,0.0864239107556304,Good,0.08912888254194931,Satisfactory,0.12523853193108425,Severe,0.18201033348990134,Good,0.053242019220148006,Good,0.38952499195291307,Satisfactory,3,245610557,0.7947527281170188,0.34615384615384615,0.1738095238095238,0.2888888888888889,1970-01-01 00:00:01.766499059,0,3,1,1,Nagamangala,21.0,0.0,0.0,0.0,0.0,59.29,916.48,814.3299999999999,894.22,340.4,12.8196077,76.7542189
Sarjapura,0.04565354662176384,Good,0.0523205997857908,Good,0.10126631675479503,Very Poor,0.18142320338186937,Good,0.05655583784380868,Good,0.36078539568676143,Satisfactory,3,245612139,0.824007429765498,0.4358974358974359,0.18333333333333332,0.19444444444444445,1970-01-01 00:00:01.766499059,0,3,1,1,Sarjapura,577.0,3.0,102.0,0.0,0.0,14.05,1408.15,357.1,894.22,340.4,12.8600866,77.7861352
Shravanabelagola,0.10126289202273207,Satisfactory,0.10094609068189934,Satisfactory,0.12119568398665392,Very Poor,0.15652888680131513,Good,0.04793990942229095,Good,0.38543247344461307,Satisfactory,4,245612228,0.7938240074297656,0.3076923076923077,0.24642857142857139,0.20277777777777778,1970-01-01 00:00:01.766499059,0,3,1,1,Shravanabelagola,69.0,0.0,0.0,0.0,0.0,25.62,916.48,814.3299999999999,894.22,340.4,12.858127,76.4870114
Mangaluru,0.13613976005051567,Satisfactory,0.12345590860406999,Satisfactory,0.0748043940606037,Poor,0.004462188821042742,Good,0.011598365182812325,Good,0.5366257414815836,Moderate,4,245612641,0.9477594613420014,0.6025641025641025,0.18333333333333332,0.8611111111111112,1970-01-01 00:00:01.766499059,0,3,1,1,Mangaluru,1088.0,6.0,0.0,0.0,0.0,82.82,1076.9,814.3299999999999,894.22,340.4,12.8698101,74.8430082
Kolar Gold Fields,0.04883182487897285,Good,0.05455194573366656,Good,0.08238668513785095,Poor,0.17977923907937993,Good,0.07467137965315365,Good,0.336368234699039,Satisfactory,3,245614133,0.7381007661945669,0.5769230769230769,0.3904761904761904,0.21666666666666667,1970-01-01 00:00:01.766498867,0,3,1,1,Kolar Gold Fields,1345.0,3.0,0.0,4.0,0.0,32.73,1365.98,814.3299999999999,589.89,340.4,12.9545994,78.2731252
Magadi,0.05489370658808673,Good,0.062138521956444134,Good,0.11986497824432693,Very Poor,0.19610145608266788,Good,0.05500938915276703,Good,0.37425851841633334,Satisfactory,3,245614962,0.7596935221732064,0.3589743589743589,0.3333333333333333,0.23611111111111113,1970-01-01 00:00:01.766499059,0,3,1,1,Magadi,191.0,0.0,0.0,0.0,0.0,35.12,916.48,814.3299999999999,894.22,340.4,12.9567353,77.2242281
Belthangadi,0.12548937065880866,Satisfactory,0.11497679400214211,Satisfactory,0.07504634055920859,Poor,0.008924377642085483,Good,0.015354026289627749,Good,0.5371775417298937,Moderate,4,245616106,0.8168098444392848,0.6794871794871794,0.08214285714285713,0.01388888888888889,1970-01-01 00:00:01.766499059,0,3,1,1,Belthangadi,112.0,0.0,0.0,0.0,0.0,136.41,916.48,814.3299999999999,894.22,340.4,12.9903521,75.2825052
Maluru,0.03445590402020628,Good,0.039485897893609435,Good,0.0812042691849915,Poor,0.1596993893846876,Good,0.04064950845023749,Good,0.314158274704557,Satisfactory,2,245616482,0.8191316461574182,0.5384615384615384,0.41428571428571426,0.27222222222222225,1970-01-01 00:00:01.766499059,0,3,1,1,Maluru,593.0,3.0,4.0,0.0,0.0,36.96,738.39,2061.29,894.22,340.4,13.0060343,77.9382839
Bethamangala,0.0410650389391707,Good,0.047500892538379164,Good,0.08399055628182864,Very Poor,0.18060122123062466,Good,0.048381751905445705,Good,0.29056881408929974,Satisfactory,2,245616527,0.7452983515207802,0.6153846153846153,0.3773809523809524,0.23055555555555557,1970-01-01 00:00:01.766499059,0,3,1,1,Bethamangala,214.0,1.0,0.0,0.0,0.0,14.9,42.11,814.3299999999999,894.22,340.4,13.0053979,78.3303624
Moodabidri,0.12578404546411281,Satisfactory,0.11454837558014996,Satisfactory,0.07280248190279212,Poor,0.004931892907468294,Good,0.011708825803601015,Good,0.5317974893088702,Moderate,4,245617423,0.935453912235895,0.6025641025641025,0.18333333333333332,0.8611111111111112,1970-01-01 00:00:01.766499059,0,3,1,1,Moodabidri,225.0,0.0,0.0,0.0,0.0,72.52,916.48,814.3299999999999,894.22,340.4,13.0699218,74.9977469
Mulki,0.13096190275731423,Satisfactory,0.11863620135665837,Satisfactory,0.07181518409396889,Poor,0.003757632691404415,Good,0.009941455870981995,Good,0.5357980411091186,Moderate,4,245617692,0.9507778035755746,0.6025641025641025,0.18333333333333332,0.8611111111111112,1970-01-01 00:00:01.766499059,0,3,1,1,Mulki,397.0,0.0,2.0,0.0,0.0,16.99,916.48,1424.42,894.22,340.4,13.0904094,74.7870474
Arakkonam,0.08983371921700696,Good,0.09246697607997145,Satisfactory,0.08859144211820257,Very Poor,0.13691874119304834,Good,0.0682646636474097,Good,0.40782636685519846,Moderate,3,245617701,0.820524727188298,0.7051282051282051,0.4619047619047619,0.13055555555555556,1970-01-01 00:00:01.766499059,0,3,1,1,Arakkonam,650.0,3.0,0.0,0.0,0.0,14.72,1621.54,814.3299999999999,894.22,340.4,13.0839782,79.6700892
Avadi,0.09406440749315935,Good,0.09591217422349163,Satisfactory,0.08520419113773389,Very Poor,0.13022545796148424,Good,0.08626974483596597,Good,0.43012829355773213,Moderate,3,245617971,0.9201300208962154,0.6538461538461539,0.42857142857142855,0.1388888888888889,1970-01-01 00:00:01.766499059,0,3,1,1,Avadi,1584.0,7.0,0.0,0.0,0.0,46.68,97.52,814.3299999999999,894.22,340.4,13.1194809,80.1026704
Kolar,0.034918964428541366,Good,0.03900392716886827,Good,0.06951278999434157,Poor,0.15077501174260213,Good,0.04020766596708273,Good,0.30670897135237046,Satisfactory,2,245618507,0.7441374506617136,0.5897435897435898,0.3845238095238095,0.26944444444444443,1970-01-01 00:00:01.766498626,0,3,1,1,Kolar,1456.0,0.0,3.0,0.0,0.0,41.93,916.48,1441.4,894.22,340.4,13.1367201,78.1337246
Turuvekere,0.04687434224373817,Good,0.049839343091752954,Good,0.09328208230083315,Very Poor,0.151949271958666,Good,0.02717331271401745,Good,0.338713385754357,Satisfactory,3,245618753,0.8024146737868587,0.2435897435897436,0.4154761904761905,0.10555555555555556,1970-01-01 00:00:01.766499059,0,3,1,1,Turuvekere,68.0,0.0,0.0,0.0,0.0,47.99,916.48,814.3299999999999,894.22,340.4,13.1627196,76.6680675
Mulabagilu,0.0410650389391707,Good,0.047500892538379164,Good,0.08399055628182864,Very Poor,0.18060122123062466,Good,0.048381751905445705,Good,0.29056881408929974,Satisfactory,2,245618783,0.739493847225447,0.641025641025641,0.34404761904761905,0.2388888888888889,1970-01-01 00:00:01.766499059,0,3,1,1,Mulabagilu,187.0,0.0,0.0,0.0,0.0,32.61,916.48,814.3299999999999,894.22,340.4,13.1660479,78.3927241
Belur,0.08248789728478216,Good,0.08020349875044627,Satisfactory,0.08259351037052935,Poor,0.07245185533114137,Good,0.025405942781398433,Good,0.43573826274888494,Moderate,3,245618812,0.7559786394241932,0.3076923076923077,0.3261904761904762,0.09722222222222222,1970-01-01 00:00:01.766499059,0,3,1,1,Belur,163.0,1.0,0.0,0.0,0.0,33.13,2178.32,814.3299999999999,894.22,340.4,13.1645671,75.8634851
Karkala,0.12361608082508947,Satisfactory,0.11324526954659053,Satisfactory,0.07229517472829798,Poor,0.005519023015500235,Good,0.011929747045178393,Good,0.542373660734814,Moderate,4,245619070,0.8249361504527514,0.7051282051282051,0.09523809523809523,0.10277777777777779,1970-01-01 00:00:01.766499059,0,3,1,1,Karkala,315.0,0.0,0.0,0.0,0.0,98.19,916.48,814.3299999999999,894.22,340.4,13.2145414,74.9951861
Chittoor,0.05988213007787835,Good,0.0652445555158872,Good,0.08233595442040154,Poor,0.13668388914983556,Good,0.038219374792886326,Good,0.33751781854968504,Satisfactory,3,245619134,0.7996285117250987,0.6666666666666666,0.2928571428571428,0.1388888888888889,1970-01-01 00:00:01.766499059,0,3,1,1,Chittoor,950.0,2.0,0.0,0.0,0.0,10.82,510.58,814.3299999999999,894.22,340.4,13.2161224,79.0972819
Kalasa,0.11155546200799833,Satisfactory,0.10396287040342736,Satisfactory,0.07621314706054515,Poor,0.025246594645373408,Good,0.016458632497514634,Good,0.5183243665792983,Moderate,4,245619208,0.7297422800092872,0.5769230769230769,0.08809523809523809,0.25833333333333336,1970-01-01 00:00:01.766499059,0,3,1,1,Kalasa,7.0,0.0,0.0,0.0,0.0,111.41,916.48,814.3299999999999,894.22,340.4,13.2322235,75.3582366
Arasikere,0.06499684276994318,Good,0.0690824705462335,Good,0.12546096661528555,Severe,0.21993893846876464,Good,0.029051143267425163,Good,0.1715638938704189,Good,3,245619678,0.799164151381472,0.2564102564102564,0.3261904761904762,0.12222222222222223,1970-01-01 00:00:01.766499059,0,3,1,1,Arasikere,308.0,1.0,0.0,0.0,0.0,29.36,1242.15,814.3299999999999,894.22,340.4,13.3159809,76.256849
Chikkamagaluru,0.09115975584087561,Good,0.08718314887540166,Satisfactory,0.07972917601607772,Poor,0.06200093940817285,Good,0.0217607422953717,Good,0.4650296592633468,Moderate,3,245619852,0.7390294868818204,0.33333333333333337,0.30476190476190473,0.11944444444444445,1970-01-01 00:00:01.766499059,0,3,1,1,Chikkamagaluru,1084.0,1.0,0.0,0.0,0.0,26.75,1844.61,814.3299999999999,894.22,340.4,13.318014,75.7738743
Srinivaspur,0.045737739423279314,Good,0.0508568368439843,Good,0.08946166904060408,Very Poor,0.18858619069985905,Good,0.04418424831547553,Good,0.2967765668827885,Satisfactory,3,245620044,0.7427443696308336,0.6153846153846153,0.3821428571428571,0.24444444444444446,1970-01-01 00:00:01.766499059,0,3,1,1,Srinivaspur,66.0,0.0,0.0,0.0,0.0,68.87,916.48,814.3299999999999,894.22,340.4,13.340085,78.2117487
Udupi,0.1254683224584298,Satisfactory,0.11413780792574083,Satisfactory,0.07014107041813816,Poor,0.004344762799436354,Good,0.010051916491770684,Good,0.539752609555341,Moderate,4,245620117,0.87787322962619,0.641025641025641,0.1845238095238095,0.888888888888889,1970-01-01 00:00:01.766499059,0,3,1,1,Udupi,864.0,0.0,5.0,0.0,0.0,11.97,916.48,1290.52,894.22,340.4,13.3419169,74.7473232
Punganuru,0.048095137865712484,Good,0.05519457336665477,Good,0.09776199488790463,Very Poor,0.20220760920620004,Good,0.04749806693913619,Good,0.2792109256449166,Satisfactory,3,245620290,0.7427443696308336,0.6923076923076923,0.25476190476190474,0.13333333333333333,1970-01-01 00:00:01.766499059,0,3,1,1,Punganuru,28.0,1.0,15.0,0.0,0.0,14.65,829.92,186.7,894.22,340.4,13.36385,78.5721781
Sidlaghatta,0.044264365396758584,Good,0.04771510174937523,Good,0.0906362802677021,Very Poor,0.17813527477689053,Good,0.04186457527891306,Good,0.3273554973099738,Satisfactory,3,245620464,0.7996285117250987,0.5256410256410257,0.3357142857142857,0.2,1970-01-01 00:00:01.766499059,0,3,1,1,Sidlaghatta,285.0,0.0,0.0,0.0,0.0,34.98,916.48,814.3299999999999,894.22,340.4,13.3885218,77.8641332
Chikkanayakanahalli,0.05112607872026942,Good,0.05296322741877901,Good,0.11252073130280385,Very Poor,0.19633630812588065,Good,0.026179167126919253,Good,0.2983400009196671,Satisfactory,3,245620767,0.809844439284885,0.2564102564102564,0.4583333333333333,0.125,1970-01-01 00:00:01.766499059,0,3,1,1,Chikkanayakanahalli,101.0,0.0,0.0,0.0,0.0,61.59,916.48,814.3299999999999,894.22,340.4,13.4190772,76.6202776
Chowdepalle,0.047632077457377395,Good,0.054516244198500555,Good,0.099073188815828,Very Poor,0.19128698919680595,Good,0.03689384734342207,Good,0.26495608589690534,Satisfactory,3,245621225,0.74669143255166,0.7051282051282051,0.20357142857142854,0.13055555555555556,1970-01-01 00:00:01.766499059,0,3,1,1,Chowdepalle,59.0,0.0,0.0,0.0,0.0,9.24,916.48,814.3299999999999,894.22,340.4,13.4336063,78.6904747
Satyavedu,0.1049463270890339,Satisfactory,0.10596215637272405,Satisfactory,0.09434742736727086,Very Poor,0.1305777360263034,Good,0.07146802165028167,Good,0.40341196486871755,Satisfactory,4,245621251,0.7996285117250987,0.782051282051282,0.3511904761904762,0.02777777777777778,1970-01-01 00:00:01.766499059,0,3,1,1,Satyavedu,57.0,1.0,0.0,0.0,0.0,222.99,222.99,814.3299999999999,894.22,340.4,13.4433561,79.9553361
Sakharayapattana,0.08238265628288782,Good,0.08209568011424492,Satisfactory,0.10729156504263332,Very Poor,0.15664631282292152,Good,0.022975809124047276,Good,0.29893778452200304,Satisfactory,3,245621695,0.7782679359182725,0.3076923076923077,0.28214285714285714,0.09444444444444444,1970-01-01 00:00:01.766499059,0,3,1,1,Sakharayapattana,67.0,0.0,0.0,0.0,0.0,8.72,916.48,814.3299999999999,894.22,340.4,13.4331791,75.920889
Hebri,0.12144811618606609,Satisfactory,0.1119600142806141,Satisfactory,0.07179176991668454,Poor,0.006106153123532173,Good,0.012040207665967083,Good,0.5529498321607579,Moderate,4,245621763,0.8112375203157651,0.7948717948717948,0.1964285714285714,0.1388888888888889,1970-01-01 00:00:01.766499059,0,3,1,1,Hebri,16.0,0.0,2.0,0.0,0.0,75.43,916.48,205.75,894.22,340.4,13.459429,74.991552
Koratagere,0.05476741738581352,Good,0.0555872902534809,Good,0.11008175450235116,Very Poor,0.18248003757632686,Good,0.040428587208660105,Good,0.3843288729479929,Satisfactory,3,245622252,0.7780357557464592,0.39743589743589747,0.3238095238095238,0.1527777777777778,1970-01-01 00:00:01.766499059,0,3,1,1,Koratagere,51.0,0.0,0.0,0.0,0.0,1.58,916.48,814.3299999999999,894.22,340.4,13.5215422,77.2358911
Koppa,0.1132603662386866,Satisfactory,0.10653338093538023,Satisfactory,0.08114963610466137,Poor,0.039455143259746354,Good,0.017231856843035458,Good,0.5100933462086724,Moderate,4,245622274,0.7511028558161134,0.33333333333333337,0.052380952380952375,0.25277777777777777,1970-01-01 00:00:01.766499059,0,3,1,1,Koppa,171.0,0.0,0.0,0.0,0.0,80.59,916.48,814.3299999999999,894.22,340.4,13.533207,75.3633986
Kaduru,0.07080614607451065,Good,0.07315244555515889,Good,0.12133226668747926,Very Poor,0.20984030061061523,Good,0.02231304539931514,Good,0.19211845311997058,Satisfactory,3,245622545,0.7910378453680056,0.3076923076923077,0.30238095238095236,0.1,1970-01-01 00:00:01.766499059,0,3,1,1,Kaduru,456.0,0.0,0.0,0.0,0.0,35.77,916.48,814.3299999999999,894.22,340.4,13.5527523,76.0142384
Chandragiri,0.0595874552725742,Good,0.06347732952516959,Good,0.0724746834208113,Poor,0.10251291686237668,Good,0.027283773334806142,Good,0.3535200257506783,Satisfactory,3,245623159,0.9001625261202693,0.7948717948717948,0.3226190476190476,0.15,1970-01-01 00:00:01.766499059,0,3,1,1,Chandragiri,414.0,0.0,0.0,0.0,0.0,7.47,916.48,814.3299999999999,894.22,340.4,13.5842501,79.3166721
Narasimharajapura,0.10587244790570408,Satisfactory,0.1019992859692967,Satisfactory,0.09632592534779807,Very Poor,0.09910756223579144,Good,0.021871202916160386,Good,0.42488619119878607,Moderate,4,245623308,0.7689807290457396,0.3205128205128205,0.17619047619047618,0.23055555555555557,1970-01-01 00:00:01.766499059,0,3,1,1,Narasimharajapura,38.0,0.0,0.0,0.0,0.0,51.63,916.48,814.3299999999999,894.22,340.4,13.6107959,75.5117301
Gauribidanuru,0.07116396548095139,Good,0.06935023205997859,Good,0.11941230415016293,Very Poor,0.19809769844997643,Good,0.04915497625096652,Good,0.4019864808939164,Satisfactory,3,245623398,0.798467610866032,0.4358974358974359,0.419047619047619,0.18888888888888888,1970-01-01 00:00:01.766499059,0,3,1,1,Gauribidanuru,210.0,0.0,0.0,0.0,0.0,35.05,916.48,814.3299999999999,894.22,340.4,13.6114523,77.5167805
Kundapura,0.11450221006103979,Satisfactory,0.10512317029632277,Satisfactory,0.06678894070359602,Poor,0.005284170972287458,Good,0.010272837733348061,Good,0.5477077298018117,Moderate,4,245623778,0.8959832830276294,0.5641025641025641,0.1880952380952381,0.9888888888888889,1970-01-01 00:00:01.766499059,0,3,1,1,Kundapura,190.0,2.0,0.0,0.0,0.0,20.94,1299.21,814.3299999999999,894.22,340.4,13.6250993,74.6915722
Madhugiri,0.06516522837297413,Good,0.06362013566583363,Good,0.11657918869875708,Very Poor,0.1910521371535932,Good,0.043079642107588634,Good,0.40423966524118277,Satisfactory,3,245624149,0.7898769445089389,0.39743589743589747,0.3392857142857143,0.15,1970-01-01 00:00:01.766499059,0,3,1,1,Madhugiri,50.0,0.0,0.0,0.0,0.0,28.56,916.48,814.3299999999999,894.22,340.4,13.6601789,77.2140882
Tirthahalli,0.1149652704693749,Satisfactory,0.10910389146733311,Satisfactory,0.08607441806013541,Very Poor,0.0536636918741193,Good,0.01811554180934497,Good,0.5019542925460984,Moderate,4,245624404,0.7555142790805665,0.41025641025641024,0.052380952380952375,0.06944444444444445,1970-01-01 00:00:01.766499059,0,3,1,1,Tirthahalli,179.0,0.0,24.0,0.0,0.0,54.83,916.48,87.13,894.22,340.4,13.6901992,75.2463699
Tarikere,0.08234055988213008,Good,0.08304177079614425,Satisfactory,0.11947083959337379,Very Poor,0.19833255049318926,Good,0.021871202916160386,Good,0.23143422081206602,Satisfactory,3,245624497,0.8031112143022986,0.3205128205128205,0.319047619047619,0.21666666666666667,1970-01-01 00:00:01.766499059,0,3,1,1,Tarikere,246.0,1.0,0.0,0.0,0.0,5.76,5.76,814.3299999999999,894.22,340.4,13.7062309,75.8183561
Bagepalli,0.06750157861502842,Good,0.06677972152802572,Good,0.11440167021131295,Very Poor,0.20620009394081723,Good,0.04672484259361537,Good,0.3778912033843749,Satisfactory,3,245624809,0.7780357557464592,0.5384615384615384,0.44880952380952377,0.21944444444444444,1970-01-01 00:00:01.766499059,0,3,1,1,Bagepalli,56.0,0.0,0.0,0.0,0.0,86.83,916.48,814.3299999999999,894.22,340.4,13.7836611,77.7972379
Hosadurga,0.053441380761944865,Good,0.05933595144591218,Good,0.14491034321281535,Severe,0.304485674025364,Good,0.014249420081740858,Good,0.0017013840989561699,Good,3,245624875,0.8191316461574182,0.28205128205128205,0.4571428571428571,0.11388888888888889,1970-01-01 00:00:01.766499059,0,3,1,1,Hosadurga,70.0,1.0,0.0,0.0,0.0,50.91,757.22,814.3299999999999,894.22,340.4,13.7987759,76.2831034
Hindupur,0.08427699431698592,Good,0.08066761870760444,Satisfactory,0.12608924703908214,Severe,0.1851808360732738,Good,0.04749806693913619,Good,0.402400331080149,Satisfactory,3,245625010,0.8154167634084049,0.41025641025641024,0.4476190476190476,0.16666666666666669,1970-01-01 00:00:01.766499059,0,3,1,1,Hindupur,999.0,2.0,0.0,0.0,0.0,11.51,682.77,814.3299999999999,894.22,340.4,13.8306127,77.492635
Bhadravathi,0.09033887602609977,Good,0.0890574794716173,Satisfactory,0.11309828100915104,Very Poor,0.1638093001409112,Good,0.02717331271401745,Good,0.31250287395962667,Satisfactory,3,245625138,0.8135593220338984,0.3076923076923077,0.3845238095238095,0.19722222222222224,1970-01-01 00:00:01.766498868,0,3,1,1,Bhadravathi,217.0,5.0,0.0,0.0,0.0,102.66,699.86,814.3299999999999,894.22,340.4,13.8502075,75.7037863
Bainduru,0.10326247105872449,Satisfactory,0.09514459121742237,Satisfactory,0.06266024077578973,Poor,0.005519023015500235,Good,0.010162377112559372,Good,0.546466179243114,Moderate,4,245625219,0.8955189226840028,0.5897435897435898,0.18928571428571428,0.08611111111111111,1970-01-01 00:00:01.766499059,0,3,1,1,Bainduru,20.0,0.0,0.0,0.0,0.0,83.2,916.48,814.3299999999999,894.22,340.4,13.8662536,74.6270036
Hosanagara,0.11170279941065041,Satisfactory,0.10476615494466264,Satisfactory,0.07049228307740336,Poor,0.007867543447627995,Good,0.013586656357008727,Good,0.5767692095461443,Moderate,4,245625411,0.7719990712793128,0.47435897435897434,0.0642857142857143,0.3111111111111111,1970-01-01 00:00:01.766499059,0,3,1,1,Hosanagara,47.0,0.0,4.0,0.0,0.0,59.31,916.48,156.5,894.22,340.4,13.916789,75.0657952
Shivamogga,0.09745316775415704,Satisfactory,0.09428775437343807,Satisfactory,0.09893660611500263,Very Poor,0.11190699859088772,Good,0.02264442726168121,Good,0.4003310801489861,Satisfactory,4,245625473,0.8086835384258184,0.3205128205128205,0.3416666666666667,0.1638888888888889,1970-01-01 00:00:01.766499059,0,3,1,1,Shivamogga,1711.0,0.0,0.0,0.0,0.0,63.69,916.48,814.3299999999999,894.22,340.4,13.9326093,75.574978
Madakasira,0.07644706377604717,Good,0.07334880399857195,Good,0.12016155782326196,Very Poor,0.17461249412869886,Good,0.04064950845023749,Good,0.40189451418586475,Satisfactory,3,245625497,0.8195960065010448,0.3846153846153846,0.4583333333333333,0.13055555555555556,1970-01-01 00:00:01.766499059,0,3,1,1,Madakasira,31.0,1.0,0.0,0.0,0.0,106.78,597.72,814.3299999999999,894.22,340.4,13.9405457,77.272588
Venkatagiri,0.0855819827404757,Good,0.08609425205283829,Satisfactory,0.08326471678601391,Very Poor,0.09628933771723812,Good,0.03247542251187451,Good,0.365291764381294,Satisfactory,3,245625591,0.8286510332017646,0.782051282051282,0.1952380952380952,0.17222222222222222,1970-01-01 00:00:01.766499059,0,3,1,1,Venkatagiri,297.0,1.0,0.0,0.0,0.0,51.23,1807.85,814.3299999999999,894.22,340.4,13.957582,79.5809332
Bhatkal,0.0990317827825721,Satisfactory,0.09032488397001072,Satisfactory,0.058746170806423276,Poor,0.004344762799436354,Good,0.00850546780072904,Good,0.5312916724145859,Moderate,4,245625781,0.8994659856048294,0.5769230769230769,0.14523809523809522,0.125,1970-01-01 00:00:01.766499059,0,3,1,1,Bhatkal,331.0,0.0,0.0,0.0,0.0,29.15,916.48,814.3299999999999,894.22,340.4,13.9873619,74.5544089
Channagiri,0.0745316775415702,Good,0.07450910389146734,Good,0.11989229478449198,Very Poor,0.1998590887740723,Good,0.023528112227990724,Good,0.21924863199521774,Satisfactory,3,245625922,0.8256326909681914,0.2948717948717948,0.47619047619047616,0.18611111111111112,1970-01-01 00:00:01.766498815,0,3,1,1,Channagiri,73.0,1.0,0.0,0.0,0.0,24.5,389.36,814.3299999999999,894.22,340.4,14.0252,75.925
Murdeshwar,0.08833929699010735,Good,0.08106033559443057,Satisfactory,0.05519892294784491,Poor,0.004931892907468294,Good,0.008615928421517729,Good,0.53069388881225,Moderate,3,245626123,0.9003947062920826,0.3205128205128205,0.13809523809523808,0.16111111111111112,1970-01-01 00:00:01.766499059,0,3,1,1,Murdeshwar,102.0,0.0,4.0,0.0,0.0,96.56,916.48,2308.84,894.22,340.4,14.0959549,74.4883354
Penukonda,0.09739002315302042,Satisfactory,0.09200285612281331,Satisfactory,0.13275448283935923,Severe,0.17226397369657112,Good,0.045841157627305854,Good,0.40276819791235574,Satisfactory,4,245626213,0.8309728349198978,0.423076923076923,0.43690476190476185,0.18611111111111112,1970-01-01 00:00:01.766499059,0,3,1,1,Penukonda,67.0,1.0,0.0,0.0,0.0,35.29,1700.12,814.3299999999999,894.22,340.4,14.0846808,77.5966537
Pavagada,0.0877288991791202,Good,0.08309532309889327,Satisfactory,0.12373612222200542,Severe,0.15817285110380455,Good,0.03832983541367502,Good,0.39950337977652095,Satisfactory,3,245626253,0.8372416995588577,0.3717948717948718,0.4809523809523809,0.13333333333333333,1970-01-01 00:00:01.766499059,0,3,1,1,Pavagada,50.0,0.0,0.0,0.0,0.0,36.7,916.48,814.3299999999999,894.22,340.4,14.0994177,77.2804049
Sagara,0.09934750578825512,Satisfactory,0.09332381292395574,Satisfactory,0.06519677664826051,Poor,0.007632691404415216,Good,0.012813432011487904,Good,0.5742861084287487,Moderate,4,245626598,0.8028790341304852,0.3205128205128205,0.1952380952380952,0.19166666666666668,1970-01-01 00:00:01.766499059,0,3,1,1,Sagara,271.0,1.0,0.0,0.0,0.0,25.61,1659.65,814.3299999999999,894.22,340.4,14.1665017,75.0263852
Santebennur,0.06514418017259525,Good,0.0658157800785434,Good,0.11995083022770286,Very Poor,0.2155941756693283,Good,0.018446923671711035,Good,0.163930657102129,Good,3,245626604,0.8312050150917112,0.2948717948717948,0.46785714285714286,0.20277777777777778,1970-01-01 00:00:01.766499059,0,3,1,1,Santebennur,39.0,0.0,0.0,0.0,0.0,41.74,916.48,814.3299999999999,894.22,340.4,14.1698888,76.0033586
Kothacheruvu,0.1011786992212166,Satisfactory,0.097001071046055,Satisfactory,0.15180191606017443,Severe,0.23250352278064815,Good,0.04738760631834751,Good,0.3573826274888491,Satisfactory,4,245626649,0.838866960761551,0.46153846153846156,0.36666666666666664,0.24722222222222223,1970-01-01 00:00:01.766499059,0,3,1,1,Kothacheruvu,37.0,0.0,0.0,0.0,0.0,0.0,916.48,814.3299999999999,894.22,340.4,14.1870879,77.7671355
Talaguppa,0.08389812671016629,Good,0.07850767583006071,Good,0.05715010438820706,Poor,0.006810709253170503,Good,0.011046062078868884,Good,0.557870051041523,Moderate,3,245626754,0.773624332482006,0.46153846153846156,0.09404761904761905,0.15555555555555556,1970-01-01 00:00:01.766499059,0,3,1,1,Talaguppa,14.0,0.0,0.0,0.0,0.0,28.96,916.48,814.3299999999999,894.22,340.4,14.2148828,74.911064
Honnali,0.07745737739423281,Good,0.07734737593716531,Good,0.12629607227176054,Severe,0.20291216533583836,Good,0.030155749475312046,Good,0.24081482503333793,Satisfactory,3,245626796,0.8328302762944044,0.28205128205128205,0.3845238095238095,0.22222222222222224,1970-01-01 00:00:01.766499059,0,3,1,1,Honnali,37.0,0.0,0.0,0.0,0.0,5.7,916.48,814.3299999999999,894.22,340.4,14.2389785,75.6457434
Shikaripura,0.08383498210902969,Good,0.08036415565869334,Satisfactory,0.08204327720434722,Poor,0.07256928135274775,Good,0.018226002430133656,Good,0.4613969742953051,Moderate,3,245626938,0.8200603668446715,0.2948717948717948,0.31785714285714284,0.225,1970-01-01 00:00:01.766499059,0,3,1,1,Shikaripura,143.0,0.0,0.0,0.0,0.0,19.68,916.48,814.3299999999999,894.22,340.4,14.2639661,75.3587796
Honnavar,0.07764681119764262,Good,0.07179578721885042,Good,0.05165167508926655,Poor,0.005401596993893846,Good,0.008726389042306418,Good,0.5300501218558882,Moderate,3,245626969,0.862317158114697,0.6666666666666666,0.125,0.13055555555555556,1970-01-01 00:00:01.766499059,0,3,1,1,Honnavar,49.0,2.0,0.0,0.0,0.0,53.42,656.18,814.3299999999999,894.22,340.4,14.2810827,74.4446716
Challakere,0.06969059145443066,Good,0.06658336308461266,Good,0.10491502604827221,Very Poor,0.13680131517144195,Good,0.017452778084612833,Good,0.31038763967443794,Satisfactory,3,245627089,0.8599953563965637,0.2948717948717948,0.544047619047619,0.20277777777777778,1970-01-01 00:00:01.766499059,0,3,1,1,Challakere,629.0,0.0,0.0,0.0,0.0,33.27,916.48,814.3299999999999,894.22,340.4,14.3167885,76.6521533
Siddapura,0.08389812671016629,Good,0.07850767583006071,Good,0.05715010438820706,Poor,0.006810709253170503,Good,0.011046062078868884,Good,0.557870051041523,Moderate,3,245627131,0.7819828186672858,0.46153846153846156,0.10714285714285714,0.1,1970-01-01 00:00:01.766499059,0,3,1,1,Siddapura,24.0,0.0,0.0,0.0,0.0,65.57,916.48,814.3299999999999,894.22,340.4,14.3409562,74.8924253
Malebennuru,0.07745737739423281,Good,0.07734737593716531,Good,0.12629607227176054,Severe,0.20291216533583836,Good,0.030155749475312046,Good,0.24081482503333793,Satisfactory,3,245627153,0.8349198978407244,0.28205128205128205,0.4357142857142857,0.23333333333333334,1970-01-01 00:00:01.766499059,0,3,1,1,Malebennuru,29.0,0.0,0.0,0.0,0.0,36.68,916.48,814.3299999999999,894.22,340.4,14.3533447,75.7384255
Siralkoppa,0.08383498210902969,Good,0.08036415565869334,Satisfactory,0.08204327720434722,Poor,0.07256928135274775,Good,0.018226002430133656,Good,0.4613969742953051,Moderate,3,245627232,0.8228465289064314,0.3076923076923077,0.3535714285714286,0.19722222222222224,1970-01-01 00:00:01.766499059,0,3,1,1,Siralkoppa,63.0,0.0,0.0,0.0,0.0,12.47,916.48,814.3299999999999,894.22,340.4,14.381916,75.2487921
Dharmavaram,0.117806777520522,Satisfactory,0.1108175651553017,Satisfactory,0.144660591988449,Severe,0.18494598403006102,Good,0.04904451563017783,Good,0.3899388421391457,Satisfactory,4,245627273,0.8725330856744834,0.39743589743589747,0.46428571428571425,0.25833333333333336,1970-01-01 00:00:01.766499059,0,3,1,1,Dharmavaram,1049.0,1.0,0.0,0.0,0.0,71.64,709.91,814.3299999999999,894.22,340.4,14.4138405,77.7208432
Kumta,0.07280572511050305,Good,0.06777936451267406,Good,0.05035218824998536,Poor,0.005871301080319397,Good,0.008947310283883795,Good,0.5238423690623993,Moderate,3,245627362,0.8901787787322962,0.641025641025641,0.11785714285714285,0.008333333333333333,1970-01-01 00:00:01.766499059,0,3,1,1,Kumta,204.0,0.0,1.0,0.0,0.0,40.42,916.48,1005.99,894.22,340.4,14.4271622,74.4117058
Kovur,0.14634813723426646,Satisfactory,0.1384862549089611,Satisfactory,0.10400187313418274,Very Poor,0.06446688586190699,Good,0.028498840163481715,Good,0.40428564859520855,Satisfactory,4,245627782,0.8442071047132574,0.7307692307692307,0.3202380952380952,0.18611111111111112,1970-01-01 00:00:01.766499059,0,3,1,1,Kovur,427.0,2.0,0.0,0.0,0.0,11.84,509.12,814.3299999999999,894.22,340.4,14.5036085,79.9868404
Harihara,0.07775205219953694,Good,0.07632988218493397,Good,0.12500048779536008,Severe,0.22369657116016906,Good,0.026621009610074006,Good,0.24435554329332784,Satisfactory,3,245627800,0.847457627118644,0.28205128205128205,0.44999999999999996,0.23055555555555557,1970-01-01 00:00:01.766499059,0,3,1,1,Harihara,552.0,3.0,0.0,0.0,0.0,25.87,737.08,814.3299999999999,894.22,340.4,14.5116874,75.809288
Kalyandurg,0.0926541780677752,Good,0.08627275972866835,Satisfactory,0.10532477415074826,Very Poor,0.09781587599812115,Good,0.026510548989285315,Good,0.42769117579436244,Moderate,3,245627947,0.8671929417227769,0.33333333333333337,0.43690476190476185,0.23055555555555557,1970-01-01 00:00:01.766499059,0,3,1,1,Kalyandurg,116.0,1.0,0.0,0.0,0.0,52.33,746.77,814.3299999999999,894.22,340.4,14.5517958,77.1119702
Gokarna,0.07608924436960642,Good,0.0708853980721171,Good,0.051636065637743644,Poor,0.005636449037106621,Good,0.00938915276703855,Good,0.5202556674483837,Moderate,3,245628061,0.9229161829579754,0.6025641025641025,0.1738095238095238,0.9277777777777778,1970-01-01 00:00:01.766499059,0,3,1,1,Gokarna,48.0,0.0,63.0,0.0,0.0,26.81,916.48,389.1,894.22,340.4,14.5439629,74.3184418
Kamalapuram,0.09433803409808462,Satisfactory,0.09210996072831133,Satisfactory,0.10563306081832549,Very Poor,0.11038046031000467,Good,0.03910305975919584,Good,0.3737527015220491,Satisfactory,4,245628114,0.863013698630137,0.5384615384615384,0.3988095238095238,0.3416666666666667,1970-01-01 00:00:01.766499059,0,3,1,1,Kamalapuram,256.0,0.0,0.0,0.0,0.0,1.19,916.48,814.3299999999999,894.22,340.4,14.5962938,78.6704194
Sirsi,0.06929067564723217,Good,0.06549446626204929,Good,0.05482819847417611,Poor,0.01432597463597933,Good,0.01215066828675577,Good,0.5310157722904308,Moderate,3,245628312,0.8040399349895518,0.33333333333333337,0.20476190476190476,0.15,1970-01-01 00:00:01.766499059,0,3,1,1,Sirsi,422.0,0.0,0.0,0.0,0.0,54.62,916.48,814.3299999999999,894.22,340.4,14.6192362,74.8388611
Ranebennur,0.08686592296358663,Good,0.08548732595501608,Satisfactory,0.1451249731712552,Severe,0.31305777360263026,Good,0.03236496189108582,Good,0.23856164068607164,Satisfactory,3,245628328,0.8409565823078708,0.2948717948717948,0.4107142857142857,0.19722222222222224,1970-01-01 00:00:01.766498845,0,3,1,1,Ranebennur,738.0,0.0,0.0,0.0,0.0,64.31,916.48,814.3299999999999,894.22,340.4,14.6165795,75.6341529
Byadagi,0.0812250052620501,Good,0.0790967511602999,Satisfactory,0.11665333359349084,Very Poor,0.21700328792860493,Good,0.026289627747707944,Good,0.3362302846369614,Satisfactory,3,245628453,0.8365451590434178,0.3076923076923077,0.4380952380952381,0.16111111111111112,1970-01-01 00:00:01.766499059,0,3,1,1,Byadagi,10.0,0.0,0.0,0.0,0.0,4.77,916.48,814.3299999999999,894.22,340.4,14.6719843,75.4858218
Ankola,0.07006945906125027,Good,0.06572652624062836,Good,0.049731712551950205,Poor,0.00575387505871301,Good,0.00938915276703855,Good,0.5134041476985332,Moderate,3,245628518,0.8857673554678431,0.6794871794871794,0.13333333333333333,0.9472222222222223,1970-01-01 00:00:01.766499059,0,3,1,1,Ankola,36.0,0.0,0.0,0.0,0.0,59.33,916.48,814.3299999999999,894.22,340.4,14.6599889,74.3047846
Badvel,0.11488107766785942,Satisfactory,0.10899678686183509,Satisfactory,0.09489375817057227,Very Poor,0.06669798027242836,Good,0.038219374792886326,Good,0.40534326573780294,Satisfactory,4,245628716,0.8393313211051776,0.6538461538461539,0.2654761904761905,0.3055555555555556,1970-01-01 00:00:01.766499059,0,3,1,1,Badvel,609.0,1.0,0.0,0.0,0.0,127.42,573.24,814.3299999999999,894.22,340.4,14.7433614,79.0610394
Harapanahalli,0.08488739212797307,Good,0.08241699393073904,Satisfactory,0.12982380831593526,Severe,0.24635979333020191,Good,0.028830222025847785,Good,0.2749344737205132,Satisfactory,3,245628928,0.8358486185279776,0.2948717948717948,0.4119047619047619,0.23055555555555557,1970-01-01 00:00:01.766499059,0,3,1,1,Harapanahalli,242.0,0.0,0.0,0.0,0.0,16.91,916.48,814.3299999999999,894.22,340.4,14.7880219,75.988032
Hanagalla,0.06994316985897707,Good,0.06635130310603357,Good,0.05771594700591208,Poor,0.018435885392202908,Good,0.013697116977797415,Good,0.5377293419782039,Moderate,3,245628970,0.8235430694218713,0.33333333333333337,0.3964285714285714,0.14444444444444446,1970-01-01 00:00:01.766499059,0,3,1,1,Hanagalla,89.0,0.0,0.0,0.0,0.0,13.74,916.48,814.3299999999999,894.22,340.4,14.7653513,75.1244336
Haveri,0.07558408756051359,Good,0.07272402713316674,Good,0.08751438996312266,Very Poor,0.1188351338656646,Good,0.019993372362752677,Good,0.4359681795190141,Moderate,3,245628997,0.8416531228233108,0.3076923076923077,0.4714285714285714,0.14444444444444446,1970-01-01 00:00:01.766498480,0,3,1,1,Haveri,557.0,1.0,0.0,0.0,0.0,21.19,297.05,814.3299999999999,894.22,340.4,14.7874825,75.3996731
Kotturu,0.09290675647232163,Good,0.0863977151017494,Satisfactory,0.09606056467190882,Very Poor,0.07691404415218411,Good,0.026510548989285315,Good,0.4396928311951074,Moderate,3,245629201,0.8456001857441375,0.2948717948717948,0.4476190476190476,0.24166666666666667,1970-01-01 00:00:01.766499059,0,3,1,1,Kotturu,99.0,0.0,0.0,0.0,0.0,92.19,916.48,814.3299999999999,894.22,340.4,14.8243692,76.2252832
Karwar,0.06497579456956432,Good,0.061370938950374876,Good,0.04789369963512906,Poor,0.005284170972287458,Good,0.009610074008615927,Good,0.5017703591299949,Moderate,3,245629232,0.9192013002089622,0.641025641025641,0.2773809523809524,0.9472222222222223,1970-01-01 00:00:01.766499059,0,3,1,1,Karwar,293.0,3.0,0.0,0.0,0.0,55.75,1108.63,814.3299999999999,894.22,340.4,14.8120931,74.1319229
Ramapura,0.09478004630604085,Satisfactory,0.08718314887540166,Satisfactory,0.08786560262238785,Very Poor,0.05425082198215124,Good,0.019220148017231858,Good,0.48162965006667596,Moderate,4,245629527,0.8511725098676572,0.33333333333333337,0.29880952380952375,0.24444444444444446,1970-01-01 00:00:01.766499059,0,3,1,1,Ramapura,19.0,0.0,0.0,0.0,0.0,118.17,916.48,814.3299999999999,894.22,340.4,14.8812342,76.7822541
Bankapura,0.07145864028625554,Good,0.06890396287040344,Good,0.09018750853641878,Very Poor,0.14149835603569746,Good,0.020877057329062188,Good,0.42341472386995915,Moderate,3,245629640,0.8404922219642442,0.2948717948717948,0.4607142857142857,0.17222222222222222,1970-01-01 00:00:01.766498615,0,3,1,1,Bankapura,25.0,0.0,0.0,0.0,0.0,80.27,916.48,814.3299999999999,894.22,340.4,14.9217443,75.2639298
Uravakonda,0.11003999158071986,Satisfactory,0.10064262763298823,Satisfactory,0.08622270784960294,Very Poor,0.0439173320807891,Good,0.03236496189108582,Good,0.501448475651814,Moderate,4,245629715,0.87508706756443,0.33333333333333337,0.38095238095238093,0.26666666666666666,1970-01-01 00:00:01.766499059,0,3,1,1,Uravakonda,331.0,1.0,0.0,0.0,0.0,141.45,1098.75,814.3299999999999,894.22,340.4,14.9467802,77.2577907
Yellapura,0.06255525152599453,Good,0.0593716529810782,Good,0.05071510799789272,Poor,0.012329732268670734,Good,0.011046062078868884,Good,0.5145077481951533,Moderate,3,245629805,0.8049686556768052,0.33333333333333337,0.22142857142857142,0.225,1970-01-01 00:00:01.766499059,0,3,1,1,Yellapura,92.0,0.0,0.0,0.0,0.0,78.33,916.48,814.3299999999999,894.22,340.4,14.9634438,74.7120788
Mundgod,0.06141864870553569,Good,0.05860406997500894,Good,0.056623285399309276,Poor,0.023954908407703143,Good,0.014359880702529547,Good,0.520761484342668,Moderate,3,245629822,0.834687717668911,0.2948717948717948,0.4202380952380952,0.23611111111111113,1970-01-01 00:00:01.766499059,0,3,1,1,Mundgod,98.0,0.0,0.0,0.0,0.0,43.85,916.48,814.3299999999999,894.22,340.4,14.9715262,75.0413079
Chagalamarri,0.1103978109871606,Satisfactory,0.10414137807925741,Satisfactory,0.09641958205693546,Very Poor,0.07644434006575855,Good,0.06716005743952282,Good,0.4261737251115097,Moderate,4,245629838,0.8534943115857906,0.5641025641025641,0.37142857142857144,0.3111111111111111,1970-01-01 00:00:01.766499059,0,3,1,1,Chagalamarri,58.0,0.0,0.0,0.0,0.0,48.07,916.48,814.3299999999999,894.22,340.4,14.9645072,78.5891171
Savanuru,0.07145864028625554,Good,0.06890396287040344,Good,0.09018750853641878,Very Poor,0.14149835603569746,Good,0.020877057329062188,Good,0.42341472386995915,Moderate,3,245629844,0.8430462038541909,0.28205128205128205,0.46428571428571425,0.17500000000000002,1970-01-01 00:00:01.766499059,0,3,1,1,Savanuru,26.0,0.0,0.0,0.0,0.0,52.6,916.48,814.3299999999999,894.22,340.4,14.9750243,75.3397064
Shiggaon,0.07145864028625554,Good,0.06890396287040344,Good,0.09018750853641878,Very Poor,0.14149835603569746,Good,0.020877057329062188,Good,0.42341472386995915,Moderate,3,245629877,0.8305084745762712,0.2948717948717948,0.4547619047619047,0.2111111111111111,1970-01-01 00:00:01.766499059,0,3,1,1,Shiggaon,101.0,0.0,0.0,0.0,0.0,12.96,916.48,814.3299999999999,894.22,340.4,14.9899007,75.2234815
Huvina Hadagali,0.09696905914544308,Satisfactory,0.0916993930739022,Satisfactory,0.1231546701527775,Severe,0.22228745890089238,Good,0.05092234618358554,Good,0.34887570699406817,Satisfactory,4,245629932,0.8579057348502438,0.3076923076923077,0.37142857142857144,0.18055555555555555,1970-01-01 00:00:01.766499059,0,3,1,1,Huvina Hadagali,68.0,1.0,0.0,0.0,0.0,79.3,426.23,814.3299999999999,894.22,340.4,15.020624,75.9318973
Hagaribommanahalli,0.09720058934961062,Satisfactory,0.0902534808996787,Satisfactory,0.09827320442527951,Very Poor,0.09852043212775949,Good,0.06340439633270739,Good,0.4412562652319861,Moderate,4,245629980,0.8706756442999768,0.26923076923076916,0.47619047619047616,0.19722222222222224,1970-01-01 00:00:01.766499059,0,3,1,1,Hagaribommanahalli,94.0,1.0,0.0,0.0,0.0,151.62,194.17,814.3299999999999,894.22,340.4,15.0468189,76.2117626
Pamuru,0.14258050936644917,Satisfactory,0.13266690467690112,Satisfactory,0.10435698815632863,Very Poor,0.05589478628464067,Good,0.0414227327957583,Good,0.42341472386995915,Moderate,4,245630135,0.8384026004179242,0.7051282051282051,0.29642857142857143,0.3277777777777778,1970-01-01 00:00:01.766499059,0,3,1,1,Pamuru,455.0,0.0,0.0,0.0,0.0,10.59,916.48,814.3299999999999,894.22,340.4,15.0944,79.4138
Lakshmeshvara,0.08819195958745528,Good,0.08391645840771154,Satisfactory,0.11266511872939064,Very Poor,0.20596524189760446,Good,0.03512647741080304,Good,0.3567388605324873,Satisfactory,3,245630301,0.8409565823078708,0.26923076923076916,0.4309523809523809,0.22222222222222224,1970-01-01 00:00:01.766499059,0,3,1,1,Lakshmeshvara,274.0,0.0,0.0,0.0,0.0,34.03,916.48,814.3299999999999,894.22,340.4,15.1248456,75.472885
Kalaghatagi,0.06912229004420123,Good,0.06535166012138524,Good,0.05898811730502819,Poor,0.029004227336777825,Good,0.013586656357008727,Good,0.48415873453809727,Moderate,3,245630640,0.904109589041096,0.2948717948717948,0.37142857142857144,0.24444444444444446,1970-01-01 00:00:01.766499059,0,3,1,1,Kalaghatagi,69.0,0.0,0.0,0.0,0.0,28.69,916.48,814.3299999999999,894.22,340.4,15.1818921,74.9718465
Mundaragi,0.10191538623447696,Satisfactory,0.09489468047126028,Satisfactory,0.11176367290394332,Very Poor,0.1760216063879755,Good,0.07080525792554954,Good,0.39269784338069624,Satisfactory,4,245630791,0.8620849779428836,0.2435897435897436,0.44166666666666665,0.17500000000000002,1970-01-01 00:00:01.766499059,0,3,1,1,Mundaragi,30.0,1.0,0.0,0.0,0.0,61.94,1407.65,814.3299999999999,894.22,340.4,15.2051817,75.8840183
Kandukur,0.1699010734582193,Satisfactory,0.15649767940021425,Satisfactory,0.1132192542584535,Very Poor,0.05425082198215124,Good,0.032144040649508446,Good,0.44649836759093214,Moderate,5,245630803,0.8456001857441375,0.7307692307692307,0.37142857142857144,0.33611111111111114,1970-01-01 00:00:01.766498783,0,3,1,1,Kandukur,451.0,1.0,0.0,0.0,0.0,50.06,794.94,814.3299999999999,894.22,340.4,15.213,79.9071
Shirahatti,0.09486423910755631,Satisfactory,0.08862906104962516,Satisfactory,0.10271409338354373,Very Poor,0.15664631282292152,Good,0.04296918148679995,Good,0.38460477307214797,Satisfactory,4,245630859,0.8339911771534712,0.2564102564102564,0.419047619047619,0.2388888888888889,1970-01-01 00:00:01.766499059,0,3,1,1,Shirahatti,52.0,0.0,0.0,0.0,0.0,102.28,916.48,814.3299999999999,894.22,340.4,15.234576,75.5791999
Kundagola,0.08762365817722585,Good,0.08197072474116389,Satisfactory,0.08739341671382021,Very Poor,0.10744480976984497,Good,0.029603446371368605,Good,0.40194049753989064,Satisfactory,3,245630941,0.892036220106803,0.28205128205128205,0.4857142857142857,0.28055555555555556,1970-01-01 00:00:01.766499059,0,3,1,1,Kundagola,26.0,0.0,0.0,0.0,0.0,34.41,916.48,814.3299999999999,894.22,340.4,15.2565128,75.2478662
Kamalapura,0.10673542412123765,Satisfactory,0.09855408782577652,Satisfactory,0.09977561413435834,Very Poor,0.12094880225457959,Good,0.10294929857505798,Good,0.44452108336782087,Moderate,4,245631144,0.8511725098676572,0.23076923076923073,0.3333333333333333,0.1527777777777778,1970-01-01 00:00:01.766499059,0,3,1,1,Kamalapura,186.0,0.0,3.0,0.0,0.0,23.41,916.48,1426.51,894.22,340.4,15.3044681,76.4756219
Kamalapura,0.10673542412123765,Satisfactory,0.09855408782577652,Satisfactory,0.09977561413435834,Very Poor,0.12094880225457959,Good,0.10294929857505798,Good,0.44452108336782087,Moderate,4,245641263,0.8003250522405386,0.1923076923076923,0.5273809523809523,0.08888888888888889,1970-01-01 00:00:01.766499060,0,3,1,1,Kamalapura,160.0,0.0,0.0,0.0,0.0,18.95,916.48,814.3299999999999,894.22,340.4,17.5784274,76.9894251
Sirvel,0.10618817091138709,Satisfactory,0.09958943234559088,Satisfactory,0.1005248678074574,Very Poor,0.08736496007515264,Good,0.09146139401303435,Good,0.42897870970708607,Moderate,4,245631185,0.8592988158811238,0.4871794871794871,0.4095238095238095,0.2888888888888889,1970-01-01 00:00:01.766499059,0,3,1,1,Sirvel,181.0,0.0,0.0,0.0,0.0,19.45,916.48,814.3299999999999,894.22,340.4,15.3211685,78.5344897
Haliyal,0.07215323089875818,Good,0.06808282756158515,Good,0.057173518565491396,Poor,0.023250352278064813,Good,0.013034353253065283,Good,0.48158366671265,Moderate,3,245631205,0.8186672858137916,0.28205128205128205,0.3261904761904762,0.15,1970-01-01 00:00:01.766499059,0,3,1,1,Haliyal,198.0,2.0,0.0,0.0,0.0,17.76,1302.96,814.3299999999999,894.22,340.4,15.3299733,74.7646665
Tanguturu,0.1922753104609556,Satisfactory,0.17704391288825422,Moderate,0.1181713527540926,Very Poor,0.05166744950681071,Good,0.03424279244449353,Good,0.4674667770267164,Moderate,5,245631247,0.8648711400046436,0.6794871794871794,0.369047619047619,0.34444444444444444,1970-01-01 00:00:01.766499059,0,3,1,1,Tanguturu,309.0,0.0,0.0,0.0,0.0,7.51,916.48,814.3299999999999,894.22,340.4,15.3401504,80.0393196
Kampli,0.12058513997053254,Satisfactory,0.11087111745805073,Satisfactory,0.10468868900119022,Very Poor,0.15547205260685762,Good,0.1489009168231525,Good,0.42842690945877593,Moderate,4,245631741,0.8411887624796842,0.1923076923076923,0.31071428571428567,0.125,1970-01-01 00:00:01.766499059,0,3,1,1,Kampli,365.0,0.0,0.0,0.0,0.0,39.38,916.48,814.3299999999999,894.22,340.4,15.4061695,76.604451
Kanigiri,0.14390654599031782,Satisfactory,0.13263120314173513,Satisfactory,0.11223585881251097,Very Poor,0.058125880695162044,Good,0.05876505025958245,Good,0.44737205131742314,Moderate,4,245631744,0.8230787090782448,0.6538461538461539,0.31785714285714284,0.3472222222222222,1970-01-01 00:00:01.766499059,0,3,1,1,Kanigiri,207.0,1.0,0.0,0.0,0.0,10.09,685.54,814.3299999999999,894.22,340.4,15.4064336,79.5066283
Gadag-Betageri,0.10738791833298254,Satisfactory,0.09814352017136739,Satisfactory,0.09921757624241478,Very Poor,0.12364960075152652,Good,0.06716005743952282,Good,0.43251942796707593,Moderate,4,245631838,0.848154167634084,0.23076923076923073,0.4988095238095238,0.22777777777777777,1970-01-01 00:00:01.766498513,0,3,1,1,Gadag-Betageri,1507.0,2.0,0.0,0.0,0.0,104.32,254.62,814.3299999999999,894.22,340.4,15.4221812,75.6376639
Annigeri,0.10153651862765734,Satisfactory,0.09332381292395574,Satisfactory,0.09277477512633897,Very Poor,0.10732738374823858,Good,0.05092234618358554,Good,0.4124247022577827,Moderate,4,245631851,0.8483863478058974,0.23076923076923073,0.5011904761904762,0.23333333333333334,1970-01-01 00:00:01.766499059,0,3,1,1,Annigeri,235.0,0.0,0.0,0.0,0.0,7.2,916.48,814.3299999999999,894.22,340.4,15.4260116,75.4333351
Gangavathi,0.11317617343717114,Satisfactory,0.10442699036058553,Satisfactory,0.10370529355524771,Very Poor,0.14877876937529352,Good,0.1432674251629294,Good,0.4363360463512209,Moderate,4,245631922,0.838170420246111,0.17948717948717946,0.3309523809523809,0.11666666666666667,1970-01-01 00:00:01.766499059,0,3,1,1,Gangavathi,711.0,6.0,0.0,0.0,0.0,68.61,608.35,814.3299999999999,894.22,340.4,15.4308872,76.5319723
Dharwad,0.08985476741738582,Good,0.08366654766154946,Satisfactory,0.07888236327096057,Poor,0.07256928135274775,Good,0.016348171876725947,Good,0.36892444934933555,Satisfactory,3,245631974,0.8790341304852566,0.3589743589743589,0.24523809523809523,0.2777777777777778,1970-01-01 00:00:01.766499059,0,3,1,1,Dharwad,1348.0,3.0,2.0,0.0,0.0,33.95,1636.97,1684.4,894.22,340.4,15.4540505,75.0066516
Holagunda,0.13226689118080404,Satisfactory,0.12106390574794718,Satisfactory,0.10502819457181323,Very Poor,0.13868013151714415,Good,0.129570308185132,Good,0.4289327263530603,Moderate,4,245632123,0.8671929417227769,0.17948717948717946,0.39404761904761904,0.125,1970-01-01 00:00:01.766499059,0,3,1,1,Holagunda,77.0,0.0,0.0,0.0,0.0,60.42,916.48,814.3299999999999,894.22,340.4,15.4884707,77.0462224
Tekkalakote,0.12797305830351507,Satisfactory,0.11731524455551592,Satisfactory,0.105668182084252,Very Poor,0.16216533583842174,Good,0.15453440848337566,Good,0.420517772566331,Moderate,4,245632231,0.8551195727884839,0.15384615384615385,0.419047619047619,0.11388888888888889,1970-01-01 00:00:01.766499059,0,3,1,1,Tekkalakote,172.0,0.0,0.0,0.0,0.0,35.08,916.48,814.3299999999999,894.22,340.4,15.5337852,76.8772225
Valpoi,0.06743843401389182,Good,0.06411995715815781,Good,0.04890831398411738,Poor,0.005636449037106621,Good,0.01226112890754446,Good,0.5065066445946567,Moderate,3,245632245,0.8312050150917112,0.5128205128205128,0.10357142857142856,0.18055555555555555,1970-01-01 00:00:01.766499060,0,3,1,1,Valpoi,205.0,0.0,0.0,0.0,0.0,20.87,916.48,814.3299999999999,894.22,340.4,15.531466,74.1372751
Navalgund,0.09568511892233215,Satisfactory,0.0884862549089611,Satisfactory,0.08599637080252091,Very Poor,0.09030061061531235,Good,0.03402187120291615,Good,0.3912263760518693,Satisfactory,4,245632331,0.8421174831669376,0.2435897435897436,0.4785714285714285,0.18333333333333335,1970-01-01 00:00:01.766499060,0,3,1,1,Navalgund,217.0,0.0,0.0,0.0,0.0,53.46,916.48,814.3299999999999,894.22,340.4,15.5582208,75.3538481
Kanakagiri,0.11317617343717114,Satisfactory,0.10442699036058553,Satisfactory,0.10370529355524771,Very Poor,0.14877876937529352,Good,0.1432674251629294,Good,0.4363360463512209,Moderate,4,245632375,0.8293475737172045,0.14102564102564102,0.4119047619047619,0.11666666666666667,1970-01-01 00:00:01.766499060,0,3,1,1,Kanakagiri,47.0,4.0,1.0,0.0,0.0,113.32,424.57,1632.89,894.22,340.4,15.5696792,76.4189879
Naregalla,0.10686171332351085,Satisfactory,0.09808996786861837,Satisfactory,0.10038438274375133,Very Poor,0.12975575387505867,Good,0.09057770904672485,Good,0.4364739964132984,Moderate,4,245632380,0.8439749245414442,0.16666666666666663,0.5416666666666666,0.2,1970-01-01 00:00:01.766499060,0,3,1,1,Naregalla,37.0,0.0,0.0,0.0,0.0,102.69,916.48,814.3299999999999,894.22,340.4,15.5736978,75.8078454
